{
    "type": "FeatureCollection",
    "name": "Pokie",
    "features": [
    { "type": "Feature", "properties": { "ID": "1", "TAFL": "Ashburton", "Pub Name": "The Fat Duck Ashburton", "Foundation": "AIR RESCUE SERVICES LIMITED", "Address": "360 WEST STREET, ASHBURTON, CANTERBURY", "col5": "", "Long": 171.7799, "Lat": -41.838875 }, "geometry": { "type": "Point", "coordinates": [ 171.7799, -41.838875 ] } },
    { "type": "Feature", "properties": { "ID": "2", "TAFL": "AUCKLAND COUNCIL - HOWICK", "Pub Name": "123 KARAOKE BAR", "Foundation": "AIR RESCUE SERVICES LIMITED", "Address": "1/16 GOOCH PLACE, HOWICK, MANUKAU", "col5": "", "Long": 174.927999, "Lat": -36.912238 }, "geometry": { "type": "Point", "coordinates": [ 174.927999, -36.912238 ] } },
    { "type": "Feature", "properties": { "ID": "3", "TAFL": "AUCKLAND COUNCIL - HOWICK", "Pub Name": "123 PALM BAR", "Foundation": "AIR RESCUE SERVICES LIMITED", "Address": "495 PAKURANGA ROAD, HALF MOON BAY, MANUKAU", "col5": "", "Long": 174.904067, "Lat": -36.898486 }, "geometry": { "type": "Point", "coordinates": [ 174.904067, -36.898486 ] } },
    { "type": "Feature", "properties": { "ID": "4", "TAFL": "AUCKLAND COUNCIL - OTARA - PAPATOETOE", "Pub Name": "The WeighBridge", "Foundation": "AIR RESCUE SERVICES LIMITED", "Address": "132 GREAT SOUTH ROAD, PAPATOETOE, AUCKLAND", "col5": "", "Long": 174.859811, "Lat": -36.968408 }, "geometry": { "type": "Point", "coordinates": [ 174.859811, -36.968408 ] } },
    { "type": "Feature", "properties": { "ID": "5", "TAFL": "CENTRAL HAWKE'S BAY DISTRICT", "Pub Name": "PJ'S BAR", "Foundation": "AIR RESCUE SERVICES LIMITED", "Address": "2 HIGH STREET, WAIPAWA, HAWKES BAY", "col5": "", "Long": 176.586641, "Lat": -39.944454 }, "geometry": { "type": "Point", "coordinates": [ 176.586641, -39.944454 ] } },
    { "type": "Feature", "properties": { "ID": "6", "TAFL": "CHRISTCHURCH CITY INCLUDING BANKS PENINSULA WARD", "Pub Name": "BILLS BAR & BISTRO", "Foundation": "AIR RESCUE SERVICES LIMITED", "Address": "1 HALSWELL ROAD, HOON HAY, CHRISTCHURCH", "col5": "", "Long": 172.594628, "Lat": -43.553872 }, "geometry": { "type": "Point", "coordinates": [ 172.594628, -43.553872 ] } },
    { "type": "Feature", "properties": { "ID": "7", "TAFL": "CHRISTCHURCH CITY INCLUDING BANKS PENINSULA WARD", "Pub Name": "BUSH INN TAVERN", "Foundation": "AIR RESCUE SERVICES LIMITED", "Address": "364 RICCARTON ROAD, UPPER RICCARTON, CHRISTCHURCH", "col5": "", "Long": 172.574589, "Lat": -43.531531 }, "geometry": { "type": "Point", "coordinates": [ 172.574589, -43.531531 ] } },
    { "type": "Feature", "properties": { "ID": "8", "TAFL": "CHRISTCHURCH CITY INCLUDING BANKS PENINSULA WARD", "Pub Name": "Cranford Alehouse", "Foundation": "AIR RESCUE SERVICES LIMITED", "Address": "305 CRANFORD STREET, ST ALBANS, CHRISTCHURCH", "col5": "", "Long": 172.628676, "Lat": -43.498715 }, "geometry": { "type": "Point", "coordinates": [ 172.628676, -43.498715 ] } },
    { "type": "Feature", "properties": { "ID": "9", "TAFL": "CHRISTCHURCH CITY INCLUDING BANKS PENINSULA WARD", "Pub Name": "Fitz Sports Bar", "Foundation": "AIR RESCUE SERVICES LIMITED", "Address": "331 CASHEL STREET, LINWOOD, CHRISTCHURCH", "col5": "", "Long": 172.649922, "Lat": -43.53298 }, "geometry": { "type": "Point", "coordinates": [ 172.649922, -43.53298 ] } },
    { "type": "Feature", "properties": { "ID": "10", "TAFL": "CHRISTCHURCH CITY INCLUDING BANKS PENINSULA WARD", "Pub Name": "Lulus Bar and Eatery", "Foundation": "AIR RESCUE SERVICES LIMITED", "Address": "31 VICTORIA STREET, CHRISTCHURCH CENTRAL, CHRISTCHURCH", "col5": "", "Long": 172.633091, "Lat": -43.526404 }, "geometry": { "type": "Point", "coordinates": [ 172.633091, -43.526404 ] } },
    { "type": "Feature", "properties": { "ID": "11", "TAFL": "CHRISTCHURCH CITY INCLUDING BANKS PENINSULA WARD", "Pub Name": "NUGGETS BAR", "Foundation": "AIR RESCUE SERVICES LIMITED", "Address": "233 LINWOOD AVENUE, LINWOOD, CHRISTCHURCH", "col5": "", "Long": 172.672639, "Lat": -43.533202 }, "geometry": { "type": "Point", "coordinates": [ 172.672639, -43.533202 ] } },
    { "type": "Feature", "properties": { "ID": "12", "TAFL": "CHRISTCHURCH CITY INCLUDING BANKS PENINSULA WARD", "Pub Name": "O'SHEA'S PUBLIC HOUSE", "Foundation": "AIR RESCUE SERVICES LIMITED", "Address": "124-134 MARSHLAND ROAD, SHIRLEY, CHRISTCHURCH", "col5": "", "Long": 172.662366, "Lat": -43.498819 }, "geometry": { "type": "Point", "coordinates": [ 172.662366, -43.498819 ] } },
    { "type": "Feature", "properties": { "ID": "13", "TAFL": "CHRISTCHURCH CITY INCLUDING BANKS PENINSULA WARD", "Pub Name": "PAPANUI RETURNED SERVICES ASSOCIATION", "Foundation": "AIR RESCUE SERVICES LIMITED", "Address": "55 BELLVUE AVENUE, PAPANUI, CHRISTCHURCH", "col5": "", "Long": 172.607526, "Lat": -43.498151 }, "geometry": { "type": "Point", "coordinates": [ 172.607526, -43.498151 ] } },
    { "type": "Feature", "properties": { "ID": "14", "TAFL": "CHRISTCHURCH CITY INCLUDING BANKS PENINSULA WARD", "Pub Name": "RACECOURSE HOTEL", "Foundation": "AIR RESCUE SERVICES LIMITED", "Address": "118 RACECOURSE ROAD, SOCKBURN, CHRISTCHURCH", "col5": "", "Long": 172.547869, "Lat": -43.533227 }, "geometry": { "type": "Point", "coordinates": [ 172.547869, -43.533227 ] } },
    { "type": "Feature", "properties": { "ID": "15", "TAFL": "CHRISTCHURCH CITY INCLUDING BANKS PENINSULA WARD", "Pub Name": "Robbies Riccarton", "Foundation": "AIR RESCUE SERVICES LIMITED", "Address": "87 Riccarton Road,RICCARTON, CHRISTCHURCH", "col5": "", "Long": 172.603107, "Lat": -43.529639 }, "geometry": { "type": "Point", "coordinates": [ 172.603107, -43.529639 ] } },
    { "type": "Feature", "properties": { "ID": "16", "TAFL": "CHRISTCHURCH CITY INCLUDING BANKS PENINSULA WARD", "Pub Name": "The Bower", "Foundation": "AIR RESCUE SERVICES LIMITED", "Address": "487 NEW BRIGHTON ROAD, NEW BRIGHTON, CHRISTCHURCH", "col5": "", "Long": 172.709046, "Lat": -43.503334 }, "geometry": { "type": "Point", "coordinates": [ 172.709046, -43.503334 ] } },
    { "type": "Feature", "properties": { "ID": "17", "TAFL": "CHRISTCHURCH CITY INCLUDING BANKS PENINSULA WARD", "Pub Name": "THE BRICKWORKS", "Foundation": "AIR RESCUE SERVICES LIMITED", "Address": "69 CENTAURUS ROAD, CASHMERE, CHRISTCHURCH", "col5": "", "Long": 172.646318, "Lat": -43.567518 }, "geometry": { "type": "Point", "coordinates": [ 172.646318, -43.567518 ] } },
    { "type": "Feature", "properties": { "ID": "18", "TAFL": "CHRISTCHURCH CITY INCLUDING BANKS PENINSULA WARD", "Pub Name": "THE VALLEY INN", "Foundation": "AIR RESCUE SERVICES LIMITED", "Address": "2 FLAVELL STREET, HEATHCOTE VALLEY, CHRISTCHURCH", "col5": "", "Long": 172.708501, "Lat": -43.577284 }, "geometry": { "type": "Point", "coordinates": [ 172.708501, -43.577284 ] } },
    { "type": "Feature", "properties": { "ID": "19", "TAFL": "CHRISTCHURCH CITY INCLUDING BANKS PENINSULA WARD", "Pub Name": "WILSONS SPORTS BAR", "Foundation": "AIR RESCUE SERVICES LIMITED", "Address": "25 RICCARTON ROAD, RICCARTON, CHRISTCHURCH", "col5": "", "Long": 172.609603, "Lat": -43.529109 }, "geometry": { "type": "Point", "coordinates": [ 172.609603, -43.529109 ] } },
    { "type": "Feature", "properties": { "ID": "20", "TAFL": "DUNEDIN CITY", "Pub Name": "Rope and Twine", "Foundation": "AIR RESCUE SERVICES LIMITED", "Address": "301 KING EDWARD STREET, DUNEDIN CENTRAL, DUNEDIN", "col5": "", "Long": 170.500937, "Lat": -45.896657 }, "geometry": { "type": "Point", "coordinates": [ 170.500937, -45.896657 ] } },
    { "type": "Feature", "properties": { "ID": "21", "TAFL": "HASTINGS DISTRICT", "Pub Name": "Currizza's Tavern", "Foundation": "AIR RESCUE SERVICES LIMITED", "Address": "342 West Heretaunga Street West,HASTINGS CENTRAL, HAWKES BAY", "col5": "", "Long": 176.836891, "Lat": -39.63596 }, "geometry": { "type": "Point", "coordinates": [ 176.836891, -39.63596 ] } },
    { "type": "Feature", "properties": { "ID": "22", "TAFL": "HASTINGS DISTRICT", "Pub Name": "Level One Bar", "Foundation": "AIR RESCUE SERVICES LIMITED", "Address": "CRN KING AND EASTBOURNE STREET WEST, HASTINGS, HAWKES BAY", "col5": "", "Long": 176.839533, "Lat": -39.640137 }, "geometry": { "type": "Point", "coordinates": [ 176.839533, -39.640137 ] } },
    { "type": "Feature", "properties": { "ID": "23", "TAFL": "HOROWHENUA DISTRICT", "Pub Name": "New Oxford Hotel", "Foundation": "AIR RESCUE SERVICES LIMITED", "Address": "289 OXFORD STREET, LEVIN, MANAWATU", "col5": "", "Long": 175.288414, "Lat": -40.619743 }, "geometry": { "type": "Point", "coordinates": [ 175.288414, -40.619743 ] } },
    { "type": "Feature", "properties": { "ID": "24", "TAFL": "HURUNUI DISTRICT", "Pub Name": "AMBERLEY HOTEL", "Foundation": "AIR RESCUE SERVICES LIMITED", "Address": "84 CARTERS ROAD, AMBERLEY, CANTERBURY", "col5": "", "Long": 172.729467, "Lat": -43.153069 }, "geometry": { "type": "Point", "coordinates": [ 172.729467, -43.153069 ] } },
    { "type": "Feature", "properties": { "ID": "25", "TAFL": "HURUNUI DISTRICT", "Pub Name": "THE OLD LEITHFIELD HOTEL", "Foundation": "AIR RESCUE SERVICES LIMITED", "Address": "11 OLD MAIN NORTH ROAD, LEITHFIELD, AMBERLEY", "col5": "", "Long": 172.741357, "Lat": -43.191442 }, "geometry": { "type": "Point", "coordinates": [ 172.741357, -43.191442 ] } },
    { "type": "Feature", "properties": { "ID": "26", "TAFL": "LOWER HUTT CITY", "Pub Name": "BEDROCKS BAR & BRASSERIE", "Foundation": "AIR RESCUE SERVICES LIMITED", "Address": "3 WATERLOO ROAD, LOWER HUTT CENTRAL, LOWER HUTT", "col5": "", "Long": 174.905261, "Lat": -41.20856 }, "geometry": { "type": "Point", "coordinates": [ 174.905261, -41.20856 ] } },
    { "type": "Feature", "properties": { "ID": "27", "TAFL": "LOWER HUTT CITY", "Pub Name": "NAENAE HOTEL", "Foundation": "AIR RESCUE SERVICES LIMITED", "Address": "5 VOGEL STREET, NAENAE, LOWER HUTT", "col5": "", "Long": 174.946749, "Lat": -41.199426 }, "geometry": { "type": "Point", "coordinates": [ 174.946749, -41.199426 ] } },
    { "type": "Feature", "properties": { "ID": "28", "TAFL": "MARLBOROUGH DISTRICT", "Pub Name": "BIDDY KATES", "Foundation": "AIR RESCUE SERVICES LIMITED", "Address": "2 MARKET STREET, BLENHEIM, MARLBOROUGH", "col5": "", "Long": 173.956915, "Lat": -41.511078 }, "geometry": { "type": "Point", "coordinates": [ 173.956915, -41.511078 ] } },
    { "type": "Feature", "properties": { "ID": "29", "TAFL": "NELSON CITY", "Pub Name": "HARDYS BAR", "Foundation": "AIR RESCUE SERVICES LIMITED", "Address": "135 HARDY STREET, NELSON CENTRAL, NELSON", "col5": "", "Long": 173.295491, "Lat": -41.274626 }, "geometry": { "type": "Point", "coordinates": [ 173.295491, -41.274626 ] } },
    { "type": "Feature", "properties": { "ID": "30", "TAFL": "NEW PLYMOUTH DISTRICT", "Pub Name": "THE HAIRY DOG", "Foundation": "AIR RESCUE SERVICES LIMITED", "Address": "33 RATA STREET, INGLEWOOD, TARANAKI", "col5": "", "Long": 174.206261, "Lat": -39.156009 }, "geometry": { "type": "Point", "coordinates": [ 174.206261, -39.156009 ] } },
    { "type": "Feature", "properties": { "ID": "31", "TAFL": "PALMERSTON NORTH CITY", "Pub Name": "Sportsmans Bar", "Foundation": "AIR RESCUE SERVICES LIMITED", "Address": "217-223 FEATHERSTON STREET, PALMERSTON NORTH CENTRAL, PALMERSTON NORTH", "col5": "", "Long": 175.612772, "Lat": -40.34698 }, "geometry": { "type": "Point", "coordinates": [ 175.612772, -40.34698 ] } },
    { "type": "Feature", "properties": { "ID": "32", "TAFL": "PORIRUA CITY", "Pub Name": "Metro Bar", "Foundation": "AIR RESCUE SERVICES LIMITED", "Address": "5 LYDNEY PLACE, PORIRUA, WELLINGTON", "col5": "", "Long": 174.841719, "Lat": -41.135394 }, "geometry": { "type": "Point", "coordinates": [ 174.841719, -41.135394 ] } },
    { "type": "Feature", "properties": { "ID": "33", "TAFL": "ROTORUA DISTRICT", "Pub Name": "Vault Bar", "Foundation": "AIR RESCUE SERVICES LIMITED", "Address": "1122 HINEMOA STREET, ROTORUA CENTRAL, ROTORUA", "col5": "", "Long": 176.252992, "Lat": -38.138114 }, "geometry": { "type": "Point", "coordinates": [ 176.252992, -38.138114 ] } },
    { "type": "Feature", "properties": { "ID": "34", "TAFL": "SELWYN DISTRICT", "Pub Name": "DUNSANDEL TAVERN", "Foundation": "AIR RESCUE SERVICES LIMITED", "Address": "3374 MAIN SOUTH ROAD, DUNSANDEL, CANTERBURY", "col5": "", "Long": 172.197833, "Lat": -43.658609 }, "geometry": { "type": "Point", "coordinates": [ 172.197833, -43.658609 ] } },
    { "type": "Feature", "properties": { "ID": "35", "TAFL": "SELWYN DISTRICT", "Pub Name": "SOUTHBRIDGE HOTEL", "Foundation": "AIR RESCUE SERVICES LIMITED", "Address": "97 HIGH STREET, SOUTHBRIDGE, CANTERBURY", "col5": "", "Long": 172.252132, "Lat": -43.811254 }, "geometry": { "type": "Point", "coordinates": [ 172.252132, -43.811254 ] } },
    { "type": "Feature", "properties": { "ID": "36", "TAFL": "SELWYN DISTRICT", "Pub Name": "THE ROCK", "Foundation": "AIR RESCUE SERVICES LIMITED", "Address": "82 ROLLESTON DRIVE,ROLLESTON, CANTERBURY", "col5": "", "Long": 172.384149, "Lat": -43.596455 }, "geometry": { "type": "Point", "coordinates": [ 172.384149, -43.596455 ] } },
    { "type": "Feature", "properties": { "ID": "37", "TAFL": "SELWYN DISTRICT", "Pub Name": "WEST MELTON TAVERN", "Foundation": "AIR RESCUE SERVICES LIMITED", "Address": "MAIN WEST COAST ROAD, WEST MELTON", "col5": "", "Long": 171.413488, "Lat": -42.372127 }, "geometry": { "type": "Point", "coordinates": [ 171.413488, -42.372127 ] } },
    { "type": "Feature", "properties": { "ID": "38", "TAFL": "TASMAN DISTRICT", "Pub Name": "The Railway Richmond", "Foundation": "AIR RESCUE SERVICES LIMITED", "Address": "321 QUEEN STREET,RICHMOND, NELSON", "col5": "", "Long": 173.182, "Lat": -41.336825 }, "geometry": { "type": "Point", "coordinates": [ 173.182, -41.336825 ] } },
    { "type": "Feature", "properties": { "ID": "39", "TAFL": "WELLINGTON CITY", "Pub Name": "Newlands Arms", "Foundation": "AIR RESCUE SERVICES LIMITED", "Address": "15 BATCHELOR STREET, NEWLANDS, WELLINGTON", "col5": "", "Long": 174.821357, "Lat": -41.223342 }, "geometry": { "type": "Point", "coordinates": [ 174.821357, -41.223342 ] } },
    { "type": "Feature", "properties": { "ID": "40", "TAFL": "WESTLAND DISTRICT", "Pub Name": "RAILWAY HOTEL", "Foundation": "AIR RESCUE SERVICES LIMITED", "Address": "34 WELD STREET, HOKITIKA, WESTLAND", "col5": "", "Long": 170.963678, "Lat": -42.717921 }, "geometry": { "type": "Point", "coordinates": [ 170.963678, -42.717921 ] } },
    { "type": "Feature", "properties": { "ID": "41", "TAFL": "AUCKLAND COUNCIL - MAUNGAKIEKIE - TAMAKI", "Pub Name": "TRIDENT TAVERN", "Foundation": "BLUE WATERS COMMUNITY TRUST", "Address": "69 SELWYN STREET, ONEHUNGA, AUCKLAND", "col5": "", "Long": 174.783139, "Lat": -36.921586 }, "geometry": { "type": "Point", "coordinates": [ 174.783139, -36.921586 ] } },
    { "type": "Feature", "properties": { "ID": "42", "TAFL": "AUCKLAND COUNCIL - WHAU", "Pub Name": "Richardsons Restaurant & Bar", "Foundation": "BLUESKY COMMUNITY TRUST LIMITED", "Address": "211 RICHARDSON ROAD, MT ROSKILL, AUCKLAND", "col5": "", "Long": 174.7196, "Lat": -36.900534 }, "geometry": { "type": "Point", "coordinates": [ 174.7196, -36.900534 ] } },
    { "type": "Feature", "properties": { "ID": "43", "TAFL": "SOUTH WAIKATO DISTRICT", "Pub Name": "Focal Point Sports Bar", "Foundation": "BLUESKY COMMUNITY TRUST LIMITED", "Address": "42 MANNERING STREET, TOKOROA, WAIKATO", "col5": "", "Long": 175.86954, "Lat": -38.21644 }, "geometry": { "type": "Point", "coordinates": [ 175.86954, -38.21644 ] } },
    { "type": "Feature", "properties": { "ID": "44", "TAFL": "AUCKLAND COUNCIL - ALBERT - EDEN", "Pub Name": "F BAR", "Foundation": "BLUESKY COMMUNITY TRUST LIMITED", "Address": "429 NEW NORTH ROAD, KINGSLAND, AUCKLAND", "col5": "", "Long": 174.746672, "Lat": -36.871435 }, "geometry": { "type": "Point", "coordinates": [ 174.746672, -36.871435 ] } },
    { "type": "Feature", "properties": { "ID": "45", "TAFL": "AUCKLAND COUNCIL - ALBERT - EDEN", "Pub Name": "Wapiti Sports Bar", "Foundation": "BLUESKY COMMUNITY TRUST LIMITED", "Address": "4-6 CARRINGTON ROAD, POINT CHEVALIER, AUCKLAND", "col5": "", "Long": 174.709999, "Lat": -36.872277 }, "geometry": { "type": "Point", "coordinates": [ 174.709999, -36.872277 ] } },
    { "type": "Feature", "properties": { "ID": "46", "TAFL": "AUCKLAND COUNCIL - DEVONPORT - TAKAPUNA", "Pub Name": "The Hub Bar & Grill", "Foundation": "BLUESKY COMMUNITY TRUST LIMITED", "Address": "145 KITCHENER ROAD, MILFORD, AUCKLAND", "col5": "", "Long": 174.764376, "Lat": -36.772312 }, "geometry": { "type": "Point", "coordinates": [ 174.764376, -36.772312 ] } },
    { "type": "Feature", "properties": { "ID": "47", "TAFL": "AUCKLAND COUNCIL - DEVONPORT - TAKAPUNA", "Pub Name": "THE RUDDER ON HAURAKI", "Foundation": "BLUESKY COMMUNITY TRUST LIMITED", "Address": "341 LAKE ROAD, HAURAKI, TAKAPUNA", "col5": "", "Long": 174.778586, "Lat": -36.79729 }, "geometry": { "type": "Point", "coordinates": [ 174.778586, -36.79729 ] } },
    { "type": "Feature", "properties": { "ID": "48", "TAFL": "AUCKLAND COUNCIL - HIBISCUS AND BAYS", "Pub Name": "CREOLE'S BAR & EATERY", "Foundation": "BLUESKY COMMUNITY TRUST LIMITED", "Address": "308-310 HIBISCUS COAST HIGHWAY STATE HIGHWAY 1, OREWA, RODNEY DISTRICT", "col5": "", "Long": 174.696848, "Lat": -36.588374 }, "geometry": { "type": "Point", "coordinates": [ 174.696848, -36.588374 ] } },
    { "type": "Feature", "properties": { "ID": "49", "TAFL": "AUCKLAND COUNCIL - HOWICK", "Pub Name": "Metro Bar & Restaurant", "Foundation": "BLUESKY COMMUNITY TRUST LIMITED", "Address": "272 TI RAKAU DRIVE, PAKURANGA, MANUKAU", "col5": "", "Long": 174.872891, "Lat": -36.91187 }, "geometry": { "type": "Point", "coordinates": [ 174.872891, -36.91187 ] } },
    { "type": "Feature", "properties": { "ID": "50", "TAFL": "AUCKLAND COUNCIL - HOWICK", "Pub Name": "NITEFUN 98", "Foundation": "BLUESKY COMMUNITY TRUST LIMITED", "Address": "491C PAKURANGA ROAD, HALF MOON BAY, AUCKLAND", "col5": "", "Long": 174.903713, "Lat": -36.898641 }, "geometry": { "type": "Point", "coordinates": [ 174.903713, -36.898641 ] } },
    { "type": "Feature", "properties": { "ID": "51", "TAFL": "AUCKLAND COUNCIL - HOWICK", "Pub Name": "THE BAILEY", "Foundation": "BLUESKY COMMUNITY TRUST LIMITED", "Address": "272B TI RAKAU DRIVE, EAST TAMAKI, AUCKLAND", "col5": "", "Long": 174.894029, "Lat": -36.9259 }, "geometry": { "type": "Point", "coordinates": [ 174.894029, -36.9259 ] } },
    { "type": "Feature", "properties": { "ID": "52", "TAFL": "AUCKLAND COUNCIL - HOWICK", "Pub Name": "THE WAYPOINT", "Foundation": "BLUESKY COMMUNITY TRUST LIMITED", "Address": "UNIT B 89 SPRINGS ROAD, EAST TAMAKI, MANUKAU", "col5": "", "Long": 174.894419, "Lat": -36.943905 }, "geometry": { "type": "Point", "coordinates": [ 174.894419, -36.943905 ] } },
    { "type": "Feature", "properties": { "ID": "53", "TAFL": "Auckland Council - Kaipatiki", "Pub Name": "WAIRAU PARK TENPIN", "Foundation": "BLUESKY COMMUNITY TRUST LIMITED", "Address": "19 LINK DRIVE, NORTH HARBOUR, AUCKLAND", "col5": "", "Long": 174.745287, "Lat": -36.637214 }, "geometry": { "type": "Point", "coordinates": [ 174.745287, -36.637214 ] } },
    { "type": "Feature", "properties": { "ID": "54", "TAFL": "AUCKLAND COUNCIL - ORAKEI", "Pub Name": "Kilala Bar + Kitchen", "Foundation": "BLUESKY COMMUNITY TRUST LIMITED", "Address": "10/35 TAMAKI DRIVE, MISSION BAY, AUCKLAND", "col5": "", "Long": 174.828986, "Lat": -36.847472 }, "geometry": { "type": "Point", "coordinates": [ 174.828986, -36.847472 ] } },
    { "type": "Feature", "properties": { "ID": "55", "TAFL": "AUCKLAND COUNCIL - OTARA - PAPATOETOE", "Pub Name": "STRIKE! MANUKAU", "Foundation": "BLUESKY COMMUNITY TRUST LIMITED", "Address": "573 GREAT SOUTH ROAD, MANUKAU CITY, MANUKAU", "col5": "", "Long": 174.877978, "Lat": -36.98277 }, "geometry": { "type": "Point", "coordinates": [ 174.877978, -36.98277 ] } },
    { "type": "Feature", "properties": { "ID": "56", "TAFL": "AUCKLAND COUNCIL - PUKETAPAPA", "Pub Name": "Chilli Bar & Cafe", "Foundation": "BLUESKY COMMUNITY TRUST LIMITED", "Address": "UNIT 8A 1-15 THE AVENUE, LYNFIELD, AUCKLAND", "col5": "", "Long": 174.723581, "Lat": -36.925892 }, "geometry": { "type": "Point", "coordinates": [ 174.723581, -36.925892 ] } },
    { "type": "Feature", "properties": { "ID": "57", "TAFL": "AUCKLAND COUNCIL - UPPER HARBOUR", "Pub Name": "EIGHT DEGREE", "Foundation": "BLUESKY COMMUNITY TRUST LIMITED", "Address": "15 MERCARI WAY, ALBANY, NORTH SHORE CITY", "col5": "", "Long": 174.708975, "Lat": -36.731852 }, "geometry": { "type": "Point", "coordinates": [ 174.708975, -36.731852 ] } },
    { "type": "Feature", "properties": { "ID": "58", "TAFL": "AUCKLAND COUNCIL - UPPER HARBOUR", "Pub Name": "Toucan Bar & Bistro", "Foundation": "BLUESKY COMMUNITY TRUST LIMITED", "Address": "235 DAIRY FLAT HIGHWAY,ALBANY, NORTH SHORE CITY", "col5": "", "Long": 174.694873, "Lat": -36.724869 }, "geometry": { "type": "Point", "coordinates": [ 174.694873, -36.724869 ] } },
    { "type": "Feature", "properties": { "ID": "59", "TAFL": "AUCKLAND COUNCIL - WAITEMATA", "Pub Name": "EDINBURGH CASTLE", "Foundation": "BLUESKY COMMUNITY TRUST LIMITED", "Address": "215 SYMONDS STREET, EDEN TERRACE, AUCKLAND", "col5": "", "Long": 174.760701, "Lat": -36.863901 }, "geometry": { "type": "Point", "coordinates": [ 174.760701, -36.863901 ] } },
    { "type": "Feature", "properties": { "ID": "60", "TAFL": "KAIPARA DISTRICT", "Pub Name": "NORTHERN WAIROA HOTEL", "Foundation": "BLUESKY COMMUNITY TRUST LIMITED", "Address": "70 VICTORIA STREET, DARGAVILLE, NORTHLAND", "col5": "", "Long": 173.86925, "Lat": -35.94204 }, "geometry": { "type": "Point", "coordinates": [ 173.86925, -35.94204 ] } },
    { "type": "Feature", "properties": { "ID": "61", "TAFL": "ROTORUA DISTRICT", "Pub Name": "Westbrook Tavern", "Foundation": "BLUESKY COMMUNITY TRUST LIMITED", "Address": "318 MALFROY ROAD, HILLCREST, ROTORUA DISTRICT", "col5": "", "Long": 176.222358, "Lat": -38.148215 }, "geometry": { "type": "Point", "coordinates": [ 176.222358, -38.148215 ] } },
    { "type": "Feature", "properties": { "ID": "62", "TAFL": "SOUTHLAND DISTRICT", "Pub Name": "Middle Pub", "Foundation": "BLUESKY COMMUNITY TRUST LIMITED", "Address": "232 GREAT NORTH ROAD, WINTON, SOUTHLAND", "col5": "", "Long": 168.325086, "Lat": -46.143135 }, "geometry": { "type": "Point", "coordinates": [ 168.325086, -46.143135 ] } },
    { "type": "Feature", "properties": { "ID": "63", "TAFL": "WAIKATO DISTRICT", "Pub Name": "RED FOX TAVERN", "Foundation": "BLUESKY COMMUNITY TRUST LIMITED", "Address": "MONUMENT ROAD, MARAMARUA, WAIKATO", "col5": "", "Long": 175.233635, "Lat": -37.223606 }, "geometry": { "type": "Point", "coordinates": [ 175.233635, -37.223606 ] } },
    { "type": "Feature", "properties": { "ID": "64", "TAFL": "CHRISTCHURCH CITY INCLUDING BANKS PENINSULA WARD", "Pub Name": "BRIDIES BAR AND BRISTRO", "Foundation": "CERT Your Local Gaming Trust Limited (Kiwi Gaming Foundation Limited)", "Address": "401 Worcester Street,LINWOOD, CHRISTCHURCH", "col5": "", "Long": 172.657341, "Lat": -43.530784 }, "geometry": { "type": "Point", "coordinates": [ 172.657341, -43.530784 ] } },
    { "type": "Feature", "properties": { "ID": "65", "TAFL": "CHRISTCHURCH CITY INCLUDING BANKS PENINSULA WARD", "Pub Name": "Greta Valley Tavern", "Foundation": "CERT Your Local Gaming Trust Limited (Kiwi Gaming Foundation Limited)", "Address": "9 TAVERN DRIVE, GRETA VALLEY", "col5": "", "Long": 172.969146, "Lat": -42.964262 }, "geometry": { "type": "Point", "coordinates": [ 172.969146, -42.964262 ] } },
    { "type": "Feature", "properties": { "ID": "66", "TAFL": "CHRISTCHURCH CITY INCLUDING BANKS PENINSULA WARD", "Pub Name": "REDWOOD HOTEL", "Foundation": "CERT Your Local Gaming Trust Limited (Kiwi Gaming Foundation Limited)", "Address": "340 MAIN NORTH ROAD, REDWOOD, CHRISTCHURCH", "col5": "", "Long": 172.617857, "Lat": -43.474422 }, "geometry": { "type": "Point", "coordinates": [ 172.617857, -43.474422 ] } },
    { "type": "Feature", "properties": { "ID": "67", "TAFL": "CHRISTCHURCH CITY INCLUDING BANKS PENINSULA WARD", "Pub Name": "SCHROEDER'S TAVERN", "Foundation": "CERT Your Local Gaming Trust Limited (Kiwi Gaming Foundation Limited)", "Address": "680 BARBADOES STREET, ST ALBANS, CHRISTCHURCH", "col5": "", "Long": 172.646125, "Lat": -43.508571 }, "geometry": { "type": "Point", "coordinates": [ 172.646125, -43.508571 ] } },
    { "type": "Feature", "properties": { "ID": "68", "TAFL": "CHRISTCHURCH CITY INCLUDING BANKS PENINSULA WARD", "Pub Name": "TEMP'S BAR", "Foundation": "CERT Your Local Gaming Trust Limited (Kiwi Gaming Foundation Limited)", "Address": "21 GOULDING AVENUE, HORNBY, CHRISTCHURCH", "col5": "", "Long": 172.523412, "Lat": -43.54444 }, "geometry": { "type": "Point", "coordinates": [ 172.523412, -43.54444 ] } },
    { "type": "Feature", "properties": { "ID": "69", "TAFL": "CHRISTCHURCH CITY INCLUDING BANKS PENINSULA WARD", "Pub Name": "The Halswell", "Foundation": "CERT Your Local Gaming Trust Limited (Kiwi Gaming Foundation Limited)", "Address": "344 HALSWELL ROAD, HALSWELL, CHRISTCHURCH", "col5": "", "Long": 172.566566, "Lat": -43.579627 }, "geometry": { "type": "Point", "coordinates": [ 172.566566, -43.579627 ] } },
    { "type": "Feature", "properties": { "ID": "70", "TAFL": "CHRISTCHURCH CITY INCLUDING BANKS PENINSULA WARD", "Pub Name": "THE LITTLE BROWN JUG", "Foundation": "CERT Your Local Gaming Trust Limited (Kiwi Gaming Foundation Limited)", "Address": "290 WAIRAKEI ROAD, BISHOPDALE, CHRISTCHURCH", "col5": "", "Long": 172.585982, "Lat": -43.499293 }, "geometry": { "type": "Point", "coordinates": [ 172.585982, -43.499293 ] } },
    { "type": "Feature", "properties": { "ID": "71", "TAFL": "CHRISTCHURCH CITY INCLUDING BANKS PENINSULA WARD", "Pub Name": "THE ROCKPOOL BAR", "Foundation": "CERT Your Local Gaming Trust Limited (Kiwi Gaming Foundation Limited)", "Address": "85 HEREFORD STREET, CHRISTCHURCH CENTRAL, CHRISTCHURCH", "col5": "", "Long": 172.634562, "Lat": -43.531914 }, "geometry": { "type": "Point", "coordinates": [ 172.634562, -43.531914 ] } },
    { "type": "Feature", "properties": { "ID": "72", "TAFL": "CHRISTCHURCH CITY INCLUDING BANKS PENINSULA WARD", "Pub Name": "THE SANDRIDGE HOTEL", "Foundation": "CERT Your Local Gaming Trust Limited (Kiwi Gaming Foundation Limited)", "Address": "30 HUXLEY STREET, SYDENHAM, CHRISTCHURCH", "col5": "", "Long": 172.638379, "Lat": -43.55053 }, "geometry": { "type": "Point", "coordinates": [ 172.638379, -43.55053 ] } },
    { "type": "Feature", "properties": { "ID": "73", "TAFL": "DUNEDIN CITY", "Pub Name": "THE BOG", "Foundation": "CERT Your Local Gaming Trust Limited (Kiwi Gaming Foundation Limited)", "Address": "387 GEORGE STREET, DUNEDIN CENTRAL, DUNEDIN", "col5": "", "Long": 170.506704, "Lat": -45.868225 }, "geometry": { "type": "Point", "coordinates": [ 170.506704, -45.868225 ] } },
    { "type": "Feature", "properties": { "ID": "74", "TAFL": "GISBORNE DISTRICT", "Pub Name": "Sugar Night Club", "Foundation": "CERT Your Local Gaming Trust Limited (Kiwi Gaming Foundation Limited)", "Address": "90 PEEL STREET, GISBORNE CENTRAL, GISBORNE", "col5": "", "Long": 178.025243, "Lat": -38.667281 }, "geometry": { "type": "Point", "coordinates": [ 178.025243, -38.667281 ] } },
    { "type": "Feature", "properties": { "ID": "75", "TAFL": "LOWER HUTT CITY", "Pub Name": "HORSE & HOUND BAR PETONE", "Foundation": "CERT Your Local Gaming Trust Limited (Kiwi Gaming Foundation Limited)", "Address": "219 JACKSON STREET, PETONE, LOWER HUTT", "col5": "", "Long": 174.880176, "Lat": -41.225641 }, "geometry": { "type": "Point", "coordinates": [ 174.880176, -41.225641 ] } },
    { "type": "Feature", "properties": { "ID": "76", "TAFL": "NEW PLYMOUTH DISTRICT", "Pub Name": "ICON SPORTS BAR & CAFÃ‰", "Foundation": "CERT Your Local Gaming Trust Limited (Kiwi Gaming Foundation Limited)", "Address": "CORNER BROUGHAM AND ARIKI STREETS, NEW PLYMOUTH CENTRAL, NEW PLYMOUTH", "col5": "", "Long": 174.072802, "Lat": -39.057176 }, "geometry": { "type": "Point", "coordinates": [ 174.072802, -39.057176 ] } },
    { "type": "Feature", "properties": { "ID": "77", "TAFL": "WAIMAKARIRI DISTRICT", "Pub Name": "KAIKANUI TAVERN", "Foundation": "CERT Your Local Gaming Trust Limited (Kiwi Gaming Foundation Limited)", "Address": "67 WILLIAMS STREET, KAIAPOI, CANTERBURY", "col5": "", "Long": 172.655087, "Lat": -43.386536 }, "geometry": { "type": "Point", "coordinates": [ 172.655087, -43.386536 ] } },
    { "type": "Feature", "properties": { "ID": "78", "TAFL": "WAIMAKARIRI DISTRICT", "Pub Name": "Woodend Tavern", "Foundation": "CERT Your Local Gaming Trust Limited (Kiwi Gaming Foundation Limited)", "Address": "51 MAIN NORTH ROAD, WOODEND, CANTERBURY", "col5": "", "Long": 172.665493, "Lat": -43.323452 }, "geometry": { "type": "Point", "coordinates": [ 172.665493, -43.323452 ] } },
    { "type": "Feature", "properties": { "ID": "79", "TAFL": "WAITAKI DISTRICT", "Pub Name": "WAIHEMO LODGE HOTEL", "Foundation": "CERT Your Local Gaming Trust Limited (Kiwi Gaming Foundation Limited)", "Address": "13-15 RUNBRAKE STREET, PALMERSTON, NORTH OTAGO", "col5": "", "Long": 170.71734, "Lat": -45.481547 }, "geometry": { "type": "Point", "coordinates": [ 170.71734, -45.481547 ] } },
    { "type": "Feature", "properties": { "ID": "80", "TAFL": "AUCKLAND COUNCIL - HOWICK", "Pub Name": "Applejack Bar & Eatery", "Foundation": "DRAGON COMMUNITY TRUST LIMITED", "Address": "2 DUNROBIN PLACE, HIGHLAND PARK, MANUKAU", "col5": "", "Long": 174.90481, "Lat": -36.898388 }, "geometry": { "type": "Point", "coordinates": [ 174.90481, -36.898388 ] } },
    { "type": "Feature", "properties": { "ID": "81", "TAFL": "AUCKLAND COUNCIL - MAUNGAKIEKIE - TAMAKI", "Pub Name": "Snooker World (Chatori Gali)", "Foundation": "DRAGON COMMUNITY TRUST LIMITED", "Address": "713 MT ALBERT ROAD, ROYAL OAK, AUCKLAND", "col5": "", "Long": 174.775016, "Lat": -36.911946 }, "geometry": { "type": "Point", "coordinates": [ 174.775016, -36.911946 ] } },
    { "type": "Feature", "properties": { "ID": "82", "TAFL": "AUCKLAND COUNCIL - MAUNGAKIEKIE - TAMAKI", "Pub Name": "THE COURTYARD BAR", "Foundation": "DRAGON COMMUNITY TRUST LIMITED", "Address": "292 APIRANA AVENUE, GLEN INNES, AUCKLAND", "col5": "", "Long": 174.855119, "Lat": -36.879872 }, "geometry": { "type": "Point", "coordinates": [ 174.855119, -36.879872 ] } },
    { "type": "Feature", "properties": { "ID": "83", "TAFL": "AUCKLAND COUNCIL - OTARA - PAPATOETOE", "Pub Name": "EAST TAMAKI TAVERN", "Foundation": "DRAGON COMMUNITY TRUST LIMITED", "Address": "265 EAST TAMAKI ROAD, OTARA, AUCKLAND", "col5": "", "Long": 174.886399, "Lat": -36.961141 }, "geometry": { "type": "Point", "coordinates": [ 174.886399, -36.961141 ] } },
    { "type": "Feature", "properties": { "ID": "84", "TAFL": "Auckland Council - Papakura", "Pub Name": "THOROUGHBRED SPORTS BAR & RESTAURANT", "Foundation": "DRAGON COMMUNITY TRUST LIMITED", "Address": "2 THE FURLONG, TAKANINI, PAPAKURA", "col5": "", "Long": 174.924785, "Lat": -37.048001 }, "geometry": { "type": "Point", "coordinates": [ 174.924785, -37.048001 ] } },
    { "type": "Feature", "properties": { "ID": "85", "TAFL": "AUCKLAND COUNCIL - UPPER HARBOUR", "Pub Name": "FAT BOYS TAVERN", "Foundation": "DRAGON COMMUNITY TRUST LIMITED", "Address": "2/215 ROSEDALE ROAD, ALBANY, NORTH SHORE CITY", "col5": "", "Long": 174.70992, "Lat": -36.741635 }, "geometry": { "type": "Point", "coordinates": [ 174.70992, -36.741635 ] } },
    { "type": "Feature", "properties": { "ID": "86", "TAFL": "AUCKLAND COUNCIL - WAITEMATA", "Pub Name": "Bar Kiwi", "Foundation": "DRAGON COMMUNITY TRUST LIMITED", "Address": "2 York Street,Level 6,NEWMARKET, AUCKLAND", "col5": "", "Long": 174.776367, "Lat": -36.867697 }, "geometry": { "type": "Point", "coordinates": [ 174.776367, -36.867697 ] } },
    { "type": "Feature", "properties": { "ID": "87", "TAFL": "AUCKLAND COUNCIL - WAITEMATA", "Pub Name": "Muddy Farmer", "Foundation": "DRAGON COMMUNITY TRUST LIMITED", "Address": "13 WYNDHAM STREET, AUCKLAND CENTRAL, AUCKLAND", "col5": "", "Long": 174.764721, "Lat": -36.846854 }, "geometry": { "type": "Point", "coordinates": [ 174.764721, -36.846854 ] } },
    { "type": "Feature", "properties": { "ID": "88", "TAFL": "HAMILTON CITY", "Pub Name": "THE DINSDALE OFFICE", "Foundation": "DRAGON COMMUNITY TRUST LIMITED", "Address": "UNIT 40 DINSDALE SHOPPING CENTRE WHATAWHATA ROAD, HAMILTON CENTRAL, HAMILTON", "col5": "", "Long": 175.244584, "Lat": -37.793905 }, "geometry": { "type": "Point", "coordinates": [ 175.244584, -37.793905 ] } },
    { "type": "Feature", "properties": { "ID": "89", "TAFL": "SOUTH WAIKATO DISTRICT", "Pub Name": "PUTARURU HOTEL", "Foundation": "DRAGON COMMUNITY TRUST LIMITED", "Address": "79 PRINCES STREET, PUTARURU, WAIKATO", "col5": "", "Long": 175.780064, "Lat": -38.053187 }, "geometry": { "type": "Point", "coordinates": [ 175.780064, -38.053187 ] } },
    { "type": "Feature", "properties": { "ID": "90", "TAFL": "HASTINGS DISTRICT", "Pub Name": "ZABEELS SPORTS BAR", "Foundation": "FIRST LIGHT COMMUNITY FOUNDATION LIMITED", "Address": "115 King Street North, Hastings 4122", "col5": "", "Long": 176.842336, "Lat": -39.639718 }, "geometry": { "type": "Point", "coordinates": [ 176.842336, -39.639718 ] } },
    { "type": "Feature", "properties": { "ID": "91", "TAFL": "WAIROA DISTRICT", "Pub Name": "Clyde Sports Bar", "Foundation": "FIRST LIGHT COMMUNITY FOUNDATION LIMITED", "Address": "MARINE PARADE, WAIROA, HAWKES BAY", "col5": "", "Long": 177.422636, "Lat": -39.03348 }, "geometry": { "type": "Point", "coordinates": [ 177.422636, -39.03348 ] } },
    { "type": "Feature", "properties": { "ID": "92", "TAFL": "WAIROA DISTRICT", "Pub Name": "FERRY HOTEL", "Foundation": "FIRST LIGHT COMMUNITY FOUNDATION LIMITED", "Address": "CAROLL STREET, WAIROA, HAWKES BAY", "col5": "", "Long": 177.417446, "Lat": -39.027569 }, "geometry": { "type": "Point", "coordinates": [ 177.417446, -39.027569 ] } },
    { "type": "Feature", "properties": { "ID": "93", "TAFL": "WAIROA DISTRICT", "Pub Name": "SUNSET POINT TAVERN", "Foundation": "FIRST LIGHT COMMUNITY FOUNDATION LIMITED", "Address": "CORNER RATAU AND NEWCAS", "col5": "", "Long": 176.146974, "Lat": -37.671162 }, "geometry": { "type": "Point", "coordinates": [ 176.146974, -37.671162 ] } },
    { "type": "Feature", "properties": { "ID": "94", "TAFL": "AUCKLAND COUNCIL - WHAU", "Pub Name": "Richardsons Restaurant & Bar", "Foundation": "Four Winds Foundation Limited", "Address": "211 RICHARDSON ROAD, MT ROSKILL, AUCKLAND", "col5": "", "Long": 174.7196, "Lat": -36.900534 }, "geometry": { "type": "Point", "coordinates": [ 174.7196, -36.900534 ] } },
    { "type": "Feature", "properties": { "ID": "95", "TAFL": "Ashburton", "Pub Name": "Arcadia Restaurant & Bar", "Foundation": "Four Winds Foundation Limited", "Address": "78-80 TANCRED STREET,ASHBURTON, CANTERBURY", "col5": "", "Long": 171.749822, "Lat": -43.907776 }, "geometry": { "type": "Point", "coordinates": [ 171.749822, -43.907776 ] } },
    { "type": "Feature", "properties": { "ID": "96", "TAFL": "AUCKLAND COUNCIL - HOWICK", "Pub Name": "METRO BAR", "Foundation": "Four Winds Foundation Limited", "Address": "3/272 TI RAKAU DRIVE, PAKURANGA, AUCKLAND", "col5": "", "Long": 174.872891, "Lat": -36.91187 }, "geometry": { "type": "Point", "coordinates": [ 174.872891, -36.91187 ] } },
    { "type": "Feature", "properties": { "ID": "97", "TAFL": "AUCKLAND COUNCIL - ALBERT - EDEN", "Pub Name": "OUTSIDE OBIE", "Foundation": "Four Winds Foundation Limited", "Address": "292-296 DOMINION ROAD, MOUNT EDEN, AUCKLAND", "col5": "", "Long": 174.744639, "Lat": -36.895724 }, "geometry": { "type": "Point", "coordinates": [ 174.744639, -36.895724 ] } },
    { "type": "Feature", "properties": { "ID": "98", "TAFL": "AUCKLAND COUNCIL - DEVONPORT - TAKAPUNA", "Pub Name": "Belmont Bar", "Foundation": "Four Winds Foundation Limited", "Address": "148 LAKE ROAD, BELMONT, NORTH SHORE CITY", "col5": "", "Long": 174.790288, "Lat": -36.807829 }, "geometry": { "type": "Point", "coordinates": [ 174.790288, -36.807829 ] } },
    { "type": "Feature", "properties": { "ID": "99", "TAFL": "AUCKLAND COUNCIL - HIBISCUS AND BAYS", "Pub Name": "ACES SPORTS BAR", "Foundation": "Four Winds Foundation Limited", "Address": "3 INVERNESS ROAD, BROWNS BAY, NORTH SHORE CITY", "col5": "", "Long": 174.747172, "Lat": -36.715432 }, "geometry": { "type": "Point", "coordinates": [ 174.747172, -36.715432 ] } },
    { "type": "Feature", "properties": { "ID": "100", "TAFL": "AUCKLAND COUNCIL - MANGERE - OTAHUHU", "Pub Name": "GEMINI BAR", "Foundation": "Four Winds Foundation Limited", "Address": "277 GREAT SOUTH ROAD, OTAHUHU, AUCKLAND", "col5": "", "Long": 174.841308, "Lat": -36.941957 }, "geometry": { "type": "Point", "coordinates": [ 174.841308, -36.941957 ] } },
    { "type": "Feature", "properties": { "ID": "101", "TAFL": "AUCKLAND COUNCIL - MANGERE - OTAHUHU", "Pub Name": "MANGERE BRIDGE TAVERN", "Foundation": "Four Winds Foundation Limited", "Address": "123 CORONATION ROAD,MANGERE BRIDGE, MANUKAU", "col5": "", "Long": 174.790509, "Lat": -36.949288 }, "geometry": { "type": "Point", "coordinates": [ 174.790509, -36.949288 ] } },
    { "type": "Feature", "properties": { "ID": "102", "TAFL": "AUCKLAND COUNCIL - MANUREWA", "Pub Name": "Crates n Cues Manurewa", "Foundation": "Four Winds Foundation Limited", "Address": "UNIT 1, 185 GREAT SOUTH ROAD, MANUREWA, MANUKAU", "col5": "", "Long": 175.309748, "Lat": -37.913024 }, "geometry": { "type": "Point", "coordinates": [ 175.309748, -37.913024 ] } },
    { "type": "Feature", "properties": { "ID": "103", "TAFL": "AUCKLAND COUNCIL - MAUNGAKIEKIE - TAMAKI", "Pub Name": "THE PIED PAPER", "Foundation": "Four Winds Foundation Limited", "Address": "137 THE MALL, ONEHUNGA, AUCKLAND", "col5": "", "Long": 176.181989, "Lat": -37.640253 }, "geometry": { "type": "Point", "coordinates": [ 176.181989, -37.640253 ] } },
    { "type": "Feature", "properties": { "ID": "104", "TAFL": "AUCKLAND COUNCIL - RODNEY", "Pub Name": "The Mates Bar", "Foundation": "Four Winds Foundation Limited", "Address": "16 SHAMROCK DRIVE, KUMEU, RODNEY DISTRICT", "col5": "", "Long": 174.553839, "Lat": -36.775668 }, "geometry": { "type": "Point", "coordinates": [ 174.553839, -36.775668 ] } },
    { "type": "Feature", "properties": { "ID": "105", "TAFL": "FAR NORTH DISTRICT", "Pub Name": "Hunter Star", "Foundation": "Four Winds Foundation Limited", "Address": "84 GILLIES STREET, KAWAKAWA, NORTHLAND", "col5": "", "Long": 174.065662, "Lat": -35.379095 }, "geometry": { "type": "Point", "coordinates": [ 174.065662, -35.379095 ] } },
    { "type": "Feature", "properties": { "ID": "106", "TAFL": "GISBORNE DISTRICT", "Pub Name": "Mo's Sports Bar & Grill", "Foundation": "Four Winds Foundation Limited", "Address": "63-65 PEEL STREET, GISBORNE CENTRAL, GISBORNE", "col5": "", "Long": 178.025008, "Lat": -38.667197 }, "geometry": { "type": "Point", "coordinates": [ 178.025008, -38.667197 ] } },
    { "type": "Feature", "properties": { "ID": "107", "TAFL": "LOWER HUTT CITY", "Pub Name": "FITZROY TAVERN", "Foundation": "Four Winds Foundation Limited", "Address": "11 THE STRAND, WAINUIOMATA, LOWER HUTT", "col5": "", "Long": 174.94459, "Lat": -41.258681 }, "geometry": { "type": "Point", "coordinates": [ 174.94459, -41.258681 ] } },
    { "type": "Feature", "properties": { "ID": "108", "TAFL": "LOWER HUTT CITY", "Pub Name": "HUTT PARK HOTEL", "Foundation": "Four Winds Foundation Limited", "Address": "9-11 RANDWICK ROAD, MOERA, LOWER HUTT", "col5": "", "Long": 174.903746, "Lat": -41.232764 }, "geometry": { "type": "Point", "coordinates": [ 174.903746, -41.232764 ] } },
    { "type": "Feature", "properties": { "ID": "109", "TAFL": "LOWER HUTT CITY", "Pub Name": "Sin Bin", "Foundation": "Four Winds Foundation Limited", "Address": "499 HUTT ROAD, LOWER HUTT CENTRAL, LOWER HUTT", "col5": "", "Long": 174.890488, "Lat": -41.212238 }, "geometry": { "type": "Point", "coordinates": [ 174.890488, -41.212238 ] } },
    { "type": "Feature", "properties": { "ID": "110", "TAFL": "MATAMATA-PIAKO DISTRICT", "Pub Name": "TRAC SPORTS BAR MATAMATA", "Foundation": "Four Winds Foundation Limited", "Address": "38 BROADWAY, MATAMATA, WAIKATO", "col5": "", "Long": 175.771762, "Lat": -37.808645 }, "geometry": { "type": "Point", "coordinates": [ 175.771762, -37.808645 ] } },
    { "type": "Feature", "properties": { "ID": "111", "TAFL": "NAPIER CITY", "Pub Name": "THE WINDSOCK", "Foundation": "Four Winds Foundation Limited", "Address": "18 HASTINGS STREET, MAREWA, NAPIER", "col5": "", "Long": 176.918045, "Lat": -39.488849 }, "geometry": { "type": "Point", "coordinates": [ 176.918045, -39.488849 ] } },
    { "type": "Feature", "properties": { "ID": "112", "TAFL": "PORIRUA CITY", "Pub Name": "The Co-Op Bar", "Foundation": "Four Winds Foundation Limited", "Address": "69A Discovery Drive,PORIRUA, WELLINGTON", "col5": "", "Long": 174.893208, "Lat": -41.117172 }, "geometry": { "type": "Point", "coordinates": [ 174.893208, -41.117172 ] } },
    { "type": "Feature", "properties": { "ID": "113", "TAFL": "ROTORUA DISTRICT", "Pub Name": "Crates n Cues", "Foundation": "Four Winds Foundation Limited", "Address": "1237 PUKUATUA STREET, ROTORUA CENTRAL, ROTORUA", "col5": "", "Long": 176.24941, "Lat": -38.136685 }, "geometry": { "type": "Point", "coordinates": [ 176.24941, -38.136685 ] } },
    { "type": "Feature", "properties": { "ID": "114", "TAFL": "SELWYN DISTRICT", "Pub Name": "DARFIELD HOTEL", "Foundation": "Four Winds Foundation Limited", "Address": "37-39 SOUTH TERRACE, DARFIELD, CANTERBURY", "col5": "", "Long": 172.111424, "Lat": -43.489746 }, "geometry": { "type": "Point", "coordinates": [ 172.111424, -43.489746 ] } },
    { "type": "Feature", "properties": { "ID": "115", "TAFL": "TAURANGA DISTRICT", "Pub Name": "MOUNT MELLICK", "Foundation": "Four Winds Foundation Limited", "Address": "317 MAUNGANUI ROAD, MT MAUNGANUI, BAY OF PLENTY", "col5": "", "Long": 176.186606, "Lat": -37.642485 }, "geometry": { "type": "Point", "coordinates": [ 176.186606, -37.642485 ] } },
    { "type": "Feature", "properties": { "ID": "116", "TAFL": "WELLINGTON CITY", "Pub Name": "GREEN MAN PUB", "Foundation": "Four Winds Foundation Limited", "Address": "24 VICTORIA STREET, WELLINGTON CENTRAL, WELLINGTON", "col5": "", "Long": 174.777094, "Lat": -41.286715 }, "geometry": { "type": "Point", "coordinates": [ 174.777094, -41.286715 ] } },
    { "type": "Feature", "properties": { "ID": "117", "TAFL": "WELLINGTON CITY", "Pub Name": "HOTEL BRISTOL", "Foundation": "Four Winds Foundation Limited", "Address": "127-133 CUBA STREET, WELLINGTON CENTRAL, WELLINGTON", "col5": "", "Long": 174.887897, "Lat": -41.221115 }, "geometry": { "type": "Point", "coordinates": [ 174.887897, -41.221115 ] } },
    { "type": "Feature", "properties": { "ID": "118", "TAFL": "WELLINGTON CITY", "Pub Name": "LEROYS", "Foundation": "Four Winds Foundation Limited", "Address": "2 PLIMMER STEPS, WELLINGTON CENTRAL, WELLINGTON", "col5": "", "Long": 174.774971, "Lat": -41.286098 }, "geometry": { "type": "Point", "coordinates": [ 174.774971, -41.286098 ] } },
    { "type": "Feature", "properties": { "ID": "119", "TAFL": "WELLINGTON CITY", "Pub Name": "MERMAID BAR", "Foundation": "Four Winds Foundation Limited", "Address": "73-75 COURTENAY PLACE, WELLINGTON CENTRAL", "col5": "", "Long": 176.28869, "Lat": -38.135425 }, "geometry": { "type": "Point", "coordinates": [ 176.28869, -38.135425 ] } },
    { "type": "Feature", "properties": { "ID": "120", "TAFL": "WELLINGTON CITY", "Pub Name": "One Fat Bird", "Foundation": "Four Winds Foundation Limited", "Address": "162 KARORI ROAD, KARORI, WELLINGTON", "col5": "", "Long": 174.745011, "Lat": -41.282477 }, "geometry": { "type": "Point", "coordinates": [ 174.745011, -41.282477 ] } },
    { "type": "Feature", "properties": { "ID": "121", "TAFL": "WELLINGTON CITY", "Pub Name": "THE CORNER", "Foundation": "Four Winds Foundation Limited", "Address": "38 RONGATAI ROAD, KILBIRNIE, WELLINGTON", "col5": "", "Long": 174.794806, "Lat": -41.317999 }, "geometry": { "type": "Point", "coordinates": [ 174.794806, -41.317999 ] } },
    { "type": "Feature", "properties": { "ID": "122", "TAFL": "WHANGAREI DISTRICT", "Pub Name": "Triple Crown", "Foundation": "Four Winds Foundation Limited", "Address": "SHOP 14 47 VINE STREET, WHANGAREI CENTRAL, NORTHLAND", "col5": "", "Long": 174.320668, "Lat": -35.726494 }, "geometry": { "type": "Point", "coordinates": [ 174.320668, -35.726494 ] } },
    { "type": "Feature", "properties": { "ID": "123", "TAFL": "WHANGAREI DISTRICT", "Pub Name": "Waipu Hotel", "Foundation": "Four Winds Foundation Limited", "Address": "4 South Road,WAIPU, NORTHLAND", "col5": "", "Long": 174.447378, "Lat": -35.985453 }, "geometry": { "type": "Point", "coordinates": [ 174.447378, -35.985453 ] } },
    { "type": "Feature", "properties": { "ID": "124", "TAFL": "ROTORUA DISTRICT", "Pub Name": "MO'S BAR", "Foundation": "Grassroots Trust Central Limited", "Address": "1142-1144 TUTANEKAI STREET, ROTORUA CENTRAL, ROTORUA", "col5": "", "Long": 176.251494, "Lat": -38.139796 }, "geometry": { "type": "Point", "coordinates": [ 176.251494, -38.139796 ] } },
    { "type": "Feature", "properties": { "ID": "125", "TAFL": "CENTRAL HAWKE'S BAY DISTRICT", "Pub Name": "LEOPARD HOTEL", "Foundation": "Grassroots Trust Central Limited", "Address": "RUATANIWHA STREET, WAIPUKURAU, HAWKES BAY", "col5": "", "Long": 176.555924, "Lat": -39.995471 }, "geometry": { "type": "Point", "coordinates": [ 176.555924, -39.995471 ] } },
    { "type": "Feature", "properties": { "ID": "126", "TAFL": "DUNEDIN CITY", "Pub Name": "CROFTERS ARMS HOTEL", "Foundation": "Grassroots Trust Central Limited", "Address": "160 GORDON ROAD, MOSGIEL, DUNEDIN", "col5": "", "Long": 170.347265, "Lat": -45.873766 }, "geometry": { "type": "Point", "coordinates": [ 170.347265, -45.873766 ] } },
    { "type": "Feature", "properties": { "ID": "127", "TAFL": "DUNEDIN CITY", "Pub Name": "KENSINGTON TUI CLUBROOMS", "Foundation": "Grassroots Trust Central Limited", "Address": "4 KING EDWARD STREET, KENSINGTON, DUNEDIN", "col5": "", "Long": 170.496006, "Lat": -45.890228 }, "geometry": { "type": "Point", "coordinates": [ 170.496006, -45.890228 ] } },
    { "type": "Feature", "properties": { "ID": "128", "TAFL": "DUNEDIN CITY", "Pub Name": "VALLEY LODGE HOTEL", "Foundation": "Grassroots Trust Central Limited", "Address": "139 KAIKORAI VALLEY ROAD, GLENROSS, DUNEDIN", "col5": "", "Long": 170.476869, "Lat": -45.868472 }, "geometry": { "type": "Point", "coordinates": [ 170.476869, -45.868472 ] } },
    { "type": "Feature", "properties": { "ID": "129", "TAFL": "GISBORNE DISTRICT", "Pub Name": "SHIPWRECK", "Foundation": "Grassroots Trust Central Limited", "Address": "335 GLADSTONE ROAD, GISBORNE CENTRAL, GISBORNE", "col5": "", "Long": 178.019746, "Lat": -38.661629 }, "geometry": { "type": "Point", "coordinates": [ 178.019746, -38.661629 ] } },
    { "type": "Feature", "properties": { "ID": "130", "TAFL": "GISBORNE DISTRICT", "Pub Name": "THE RIVERS", "Foundation": "Grassroots Trust Central Limited", "Address": "1 GLADSTONE ROAD, GISBORNE", "col5": "", "Long": 174.737257, "Lat": -36.81006 }, "geometry": { "type": "Point", "coordinates": [ 174.737257, -36.81006 ] } },
    { "type": "Feature", "properties": { "ID": "131", "TAFL": "HASTINGS DISTRICT", "Pub Name": "Bar 2013", "Foundation": "Grassroots Trust Central Limited", "Address": "101 Karamu Road South,HASTINGS CENTRAL, HAWKES BAY", "col5": "", "Long": 176.843873, "Lat": -39.642909 }, "geometry": { "type": "Point", "coordinates": [ 176.843873, -39.642909 ] } },
    { "type": "Feature", "properties": { "ID": "132", "TAFL": "HASTINGS DISTRICT", "Pub Name": "Bollywood Star Restaurant", "Foundation": "Grassroots Trust Central Limited", "Address": "102-106 HERETAUNGA STREET, HASTINGS CENTRAL, HAWKES BAY", "col5": "", "Long": 176.199987, "Lat": -38.036593 }, "geometry": { "type": "Point", "coordinates": [ 176.199987, -38.036593 ] } },
    { "type": "Feature", "properties": { "ID": "133", "TAFL": "HASTINGS DISTRICT", "Pub Name": "KORK N BARREL", "Foundation": "Grassroots Trust Central Limited", "Address": "58 WEST QUAY, AHURIRI, NAPIER", "col5": "", "Long": 176.894501, "Lat": -39.483163 }, "geometry": { "type": "Point", "coordinates": [ 176.894501, -39.483163 ] } },
    { "type": "Feature", "properties": { "ID": "134", "TAFL": "NAPIER CITY", "Pub Name": "Union Hotel", "Foundation": "Grassroots Trust Central Limited", "Address": "3 WAGHORNE STREET, AHURIRI, NAPIER", "col5": "", "Long": 176.897384, "Lat": -39.480546 }, "geometry": { "type": "Point", "coordinates": [ 176.897384, -39.480546 ] } },
    { "type": "Feature", "properties": { "ID": "135", "TAFL": "NAPIER CITY", "Pub Name": "Westshore Beach Inn", "Foundation": "Grassroots Trust Central Limited", "Address": "85 MEEANEE QUAY, WESTSHORE, NAPIER", "col5": "", "Long": 176.879105, "Lat": -39.475697 }, "geometry": { "type": "Point", "coordinates": [ 176.879105, -39.475697 ] } },
    { "type": "Feature", "properties": { "ID": "136", "TAFL": "PALMERSTON NORTH CITY", "Pub Name": "Castle 789", "Foundation": "Grassroots Trust Central Limited", "Address": "789 MAIN STREET, PALMERSTON NORTH CENTRAL, PALMERSTON NORTH", "col5": "", "Long": 175.569378, "Lat": -40.433449 }, "geometry": { "type": "Point", "coordinates": [ 175.569378, -40.433449 ] } },
    { "type": "Feature", "properties": { "ID": "137", "TAFL": "PORIRUA CITY", "Pub Name": "North City Tenpin", "Foundation": "Grassroots Trust Central Limited", "Address": "35 KENEPURU DRIVE, PORIRUA, WELLINGTON", "col5": "", "Long": 174.841698, "Lat": -41.147261 }, "geometry": { "type": "Point", "coordinates": [ 174.841698, -41.147261 ] } },
    { "type": "Feature", "properties": { "ID": "138", "TAFL": "QUEENSTOWN-LAKES DISTRICT", "Pub Name": "WATER BAR", "Foundation": "Grassroots Trust Central Limited", "Address": "145 ARDMORE STREET, WANAKA, OTAGO", "col5": "", "Long": 169.133862, "Lat": -44.695727 }, "geometry": { "type": "Point", "coordinates": [ 169.133862, -44.695727 ] } },
    { "type": "Feature", "properties": { "ID": "139", "TAFL": "ROTORUA DISTRICT", "Pub Name": "The Lincoln", "Foundation": "Grassroots Trust Central Limited", "Address": "1295 FENTON STREET, ROTORUA CENTRAL, ROTORUA", "col5": "", "Long": 176.253538, "Lat": -38.139313 }, "geometry": { "type": "Point", "coordinates": [ 176.253538, -38.139313 ] } },
    { "type": "Feature", "properties": { "ID": "140", "TAFL": "TARARUA DISTRICT", "Pub Name": "CLUB HOTEL", "Foundation": "Grassroots Trust Central Limited", "Address": "81 MAIN STREET, PAHIATUA, MANAWATU", "col5": "", "Long": 175.842417, "Lat": -40.451752 }, "geometry": { "type": "Point", "coordinates": [ 175.842417, -40.451752 ] } },
    { "type": "Feature", "properties": { "ID": "141", "TAFL": "TAURANGA DISTRICT", "Pub Name": "ROSIE O'GRADYS IRISH PUB", "Foundation": "Grassroots Trust Central Limited", "Address": "2 RATA STREET, MT MAUNGANUI, BAY OF PLENTY", "col5": "", "Long": 176.185421, "Lat": -37.642428 }, "geometry": { "type": "Point", "coordinates": [ 176.185421, -37.642428 ] } },
    { "type": "Feature", "properties": { "ID": "142", "TAFL": "WANGANUI DISTRICT", "Pub Name": "Barracks Sports Bar", "Foundation": "Grassroots Trust Central Limited", "Address": "170 St Hill Street,WANGANUI, WANGANUI DISTRICT", "col5": "", "Long": 175.048082, "Lat": -39.93178 }, "geometry": { "type": "Point", "coordinates": [ 175.048082, -39.93178 ] } },
    { "type": "Feature", "properties": { "ID": "143", "TAFL": "WELLINGTON CITY", "Pub Name": "BAY 66 BAR & BISTRO", "Foundation": "Grassroots Trust Central Limited", "Address": "66 BAY ROAD, KILBIRNIE, WELLINGTON", "col5": "", "Long": 174.794249, "Lat": -41.31949 }, "geometry": { "type": "Point", "coordinates": [ 174.794249, -41.31949 ] } },
    { "type": "Feature", "properties": { "ID": "144", "TAFL": "WELLINGTON CITY", "Pub Name": "NEWTOWN SPORTS BAR", "Foundation": "Grassroots Trust Central Limited", "Address": "34 CONSTABLE STREET, NEWTOWN, WELLINGTON", "col5": "", "Long": 174.781669, "Lat": -41.313553 }, "geometry": { "type": "Point", "coordinates": [ 174.781669, -41.313553 ] } },
    { "type": "Feature", "properties": { "ID": "145", "TAFL": "WELLINGTON CITY", "Pub Name": "The Residence", "Foundation": "Grassroots Trust Central Limited", "Address": "SHOP 1 120 COURTENAY PLACE, WELLINGTON CENTRAL, WELLINGTON", "col5": "", "Long": 174.77951, "Lat": -41.29255 }, "geometry": { "type": "Point", "coordinates": [ 174.77951, -41.29255 ] } },
    { "type": "Feature", "properties": { "ID": "146", "TAFL": "AUCKLAND COUNCIL - FRANKLIN", "Pub Name": "EDINBURGH ST", "Foundation": "Grassroots Trust Limited", "Address": "27 EDINBURGH STREET, PUKEKOHE, FRANKLIN", "col5": "", "Long": 174.90375, "Lat": -37.201806 }, "geometry": { "type": "Point", "coordinates": [ 174.90375, -37.201806 ] } },
    { "type": "Feature", "properties": { "ID": "147", "TAFL": "AUCKLAND COUNCIL - FRANKLIN", "Pub Name": "Malt N Steel", "Foundation": "Grassroots Trust Limited", "Address": "72 QUEEN STREET, WAIUKU, FRANKLIN", "col5": "", "Long": 174.731083, "Lat": -37.250541 }, "geometry": { "type": "Point", "coordinates": [ 174.731083, -37.250541 ] } },
    { "type": "Feature", "properties": { "ID": "148", "TAFL": "AUCKLAND COUNCIL - FRANKLIN", "Pub Name": "The Longkeeper", "Foundation": "Grassroots Trust Limited", "Address": "245 KING STREET, PUKEKOHE, FRANKLIN", "col5": "", "Long": 174.907367, "Lat": -37.201131 }, "geometry": { "type": "Point", "coordinates": [ 174.907367, -37.201131 ] } },
    { "type": "Feature", "properties": { "ID": "149", "TAFL": "AUCKLAND COUNCIL - FRANKLIN", "Pub Name": "The Village Bar", "Foundation": "Grassroots Trust Limited", "Address": "1 PATUMAHOE ROAD, PATUMAHOE, FRANKLIN", "col5": "", "Long": 174.828295, "Lat": -37.187693 }, "geometry": { "type": "Point", "coordinates": [ 174.828295, -37.187693 ] } },
    { "type": "Feature", "properties": { "ID": "150", "TAFL": "AUCKLAND COUNCIL - HENDERSON - MASSEY", "Pub Name": "Westgate Bowling", "Foundation": "Grassroots Trust Limited", "Address": "SHOP L4 WESTGATE POWER CENTRE, MASSEY, AUCKLAND", "col5": "", "Long": 174.61244, "Lat": -36.840744 }, "geometry": { "type": "Point", "coordinates": [ 174.61244, -36.840744 ] } },
    { "type": "Feature", "properties": { "ID": "151", "TAFL": "AUCKLAND COUNCIL - HENDERSON - MASSEY", "Pub Name": "Wood Brothers", "Foundation": "Grassroots Trust Limited", "Address": "385 Great North Road", "col5": "", "Long": 176.146974, "Lat": -37.671162 }, "geometry": { "type": "Point", "coordinates": [ 176.146974, -37.671162 ] } },
    { "type": "Feature", "properties": { "ID": "152", "TAFL": "AUCKLAND COUNCIL - HIBISCUS AND BAYS", "Pub Name": "THE CROWS NEST", "Foundation": "Grassroots Trust Limited", "Address": "665-667 WHANGAPARAOA ROAD, STANMORE BAY, RODNEY DISTRICT", "col5": "", "Long": 174.748869, "Lat": -36.636687 }, "geometry": { "type": "Point", "coordinates": [ 174.748869, -36.636687 ] } },
    { "type": "Feature", "properties": { "ID": "153", "TAFL": "AUCKLAND COUNCIL - HOWICK", "Pub Name": "Lucky's Sports Bar", "Foundation": "Grassroots Trust Limited", "Address": "125 ELLIOT STREET, HOWICK, MANUKAU", "col5": "", "Long": 174.927116, "Lat": -36.901651 }, "geometry": { "type": "Point", "coordinates": [ 174.927116, -36.901651 ] } },
    { "type": "Feature", "properties": { "ID": "154", "TAFL": "AUCKLAND COUNCIL - HOWICK", "Pub Name": "SHIRAZ BAR", "Foundation": "Grassroots Trust Limited", "Address": "113B MEADOWLANDS DRIVE, HOWICK, MANUKAU", "col5": "", "Long": 174.929866, "Lat": -36.912549 }, "geometry": { "type": "Point", "coordinates": [ 174.929866, -36.912549 ] } },
    { "type": "Feature", "properties": { "ID": "155", "TAFL": "AUCKLAND COUNCIL - HOWICK", "Pub Name": "THE HOWICK RETURNED SERVICES AND ASSOCIATION COMMUNITY CLUB INCORPORATED", "Foundation": "Grassroots Trust Limited", "Address": "25 WELLINGTON STREET, HOWICK, MANUKAU", "col5": "", "Long": 174.929149, "Lat": -36.89423 }, "geometry": { "type": "Point", "coordinates": [ 174.929149, -36.89423 ] } },
    { "type": "Feature", "properties": { "ID": "156", "TAFL": "Auckland Council - Kaipatiki", "Pub Name": "Glenfield Sports Bar", "Foundation": "Grassroots Trust Limited", "Address": "2/405 GLENFIELD ROAD, GLENFIELD, NORTH SHORE CITY", "col5": "", "Long": 174.721875, "Lat": -36.784418 }, "geometry": { "type": "Point", "coordinates": [ 174.721875, -36.784418 ] } },
    { "type": "Feature", "properties": { "ID": "157", "TAFL": "AUCKLAND COUNCIL - MANGERE - OTAHUHU", "Pub Name": "Phoenix Tavern", "Foundation": "Grassroots Trust Limited", "Address": "26 AVENUE ROAD, OTAHUHU, AUCKLAND", "col5": "", "Long": 174.844879, "Lat": -36.942723 }, "geometry": { "type": "Point", "coordinates": [ 174.844879, -36.942723 ] } },
    { "type": "Feature", "properties": { "ID": "158", "TAFL": "AUCKLAND COUNCIL - MANUREWA", "Pub Name": "Love Punjab Restaurant and Bar", "Foundation": "Grassroots Trust Limited", "Address": "220 GREAT SOUTH ROAD, MANUREWA, MANUKAU", "col5": "", "Long": 174.841421, "Lat": -36.941537 }, "geometry": { "type": "Point", "coordinates": [ 174.841421, -36.941537 ] } },
    { "type": "Feature", "properties": { "ID": "159", "TAFL": "AUCKLAND COUNCIL - MANUREWA", "Pub Name": "REWA BAR", "Foundation": "Grassroots Trust Limited", "Address": "202 GREAT SOUTH ROAD, MANUREWA, MANUKAU", "col5": "", "Long": 174.861685, "Lat": -36.969868 }, "geometry": { "type": "Point", "coordinates": [ 174.861685, -36.969868 ] } },
    { "type": "Feature", "properties": { "ID": "160", "TAFL": "AUCKLAND COUNCIL - MAUNGAKIEKIE - TAMAKI", "Pub Name": "THE LANDING SEAFOOD RESTAURANT & BAR", "Foundation": "Grassroots Trust Limited", "Address": "2 ONEHUNGA HARBOUR ROAD, ONEHUNGA, AUCKLAND", "col5": "", "Long": 174.785803, "Lat": -36.931107 }, "geometry": { "type": "Point", "coordinates": [ 174.785803, -36.931107 ] } },
    { "type": "Feature", "properties": { "ID": "161", "TAFL": "AUCKLAND COUNCIL - OTARA - PAPATOETOE", "Pub Name": "SHOOTERS SNOOKER AND POOL", "Foundation": "Grassroots Trust Limited", "Address": "57C CAVENDISH DRIVE, MANUKAU CITY, MANUKAU", "col5": "", "Long": 174.874662, "Lat": -36.987742 }, "geometry": { "type": "Point", "coordinates": [ 174.874662, -36.987742 ] } },
    { "type": "Feature", "properties": { "ID": "162", "TAFL": "Auckland Council - Papakura", "Pub Name": "MURPHY'S LAW IRISH BAR", "Foundation": "Grassroots Trust Limited", "Address": "200 GREAT SOUTH ROAD, DRURY, PAPAKURA", "col5": "", "Long": 174.943219, "Lat": -37.063644 }, "geometry": { "type": "Point", "coordinates": [ 174.943219, -37.063644 ] } },
    { "type": "Feature", "properties": { "ID": "163", "TAFL": "Auckland Council - Papakura", "Pub Name": "PAPAKURA TAVERN", "Foundation": "Grassroots Trust Limited", "Address": "159 GREAT SOUTH ROAD, PAPAKURA, SOUTH AUCKLAND", "col5": "", "Long": 174.790492, "Lat": -36.888052 }, "geometry": { "type": "Point", "coordinates": [ 174.790492, -36.888052 ] } },
    { "type": "Feature", "properties": { "ID": "164", "TAFL": "Auckland Council - Papakura", "Pub Name": "The Blacksmith", "Foundation": "Grassroots Trust Limited", "Address": "Unit 1 ,30 Walters Road,TAKANINI, PAPAKURA", "col5": "", "Long": 174.904973, "Lat": -37.093939 }, "geometry": { "type": "Point", "coordinates": [ 174.904973, -37.093939 ] } },
    { "type": "Feature", "properties": { "ID": "165", "TAFL": "AUCKLAND COUNCIL - RODNEY", "Pub Name": "KAIPARA TAVERN", "Foundation": "Grassroots Trust Limited", "Address": "26 COMMERCIAL ROAD, HELENSVILLE, RODNEY DISTRICT", "col5": "", "Long": 174.450029, "Lat": -36.677783 }, "geometry": { "type": "Point", "coordinates": [ 174.450029, -36.677783 ] } },
    { "type": "Feature", "properties": { "ID": "166", "TAFL": "AUCKLAND COUNCIL - WAITEMATA", "Pub Name": "FAMILY", "Foundation": "Grassroots Trust Limited", "Address": "270 KARANGAHAPE ROAD, NEWTON, AUCKLAND", "col5": "", "Long": 174.758475, "Lat": -36.857779 }, "geometry": { "type": "Point", "coordinates": [ 174.758475, -36.857779 ] } },
    { "type": "Feature", "properties": { "ID": "167", "TAFL": "FAR NORTH DISTRICT", "Pub Name": "KLONDIKE ALE HOUSE", "Foundation": "Grassroots Trust Limited", "Address": "5 GILLIES STREET, KAWAKAWA, NORTHLAND", "col5": "", "Long": 174.071455, "Lat": -35.377964 }, "geometry": { "type": "Point", "coordinates": [ 174.071455, -35.377964 ] } },
    { "type": "Feature", "properties": { "ID": "168", "TAFL": "FAR NORTH DISTRICT", "Pub Name": "Paihia Sports Bar", "Foundation": "Grassroots Trust Limited", "Address": "10 Selwyn Road,PAIHIA, NORTHLAND", "col5": "", "Long": 174.090573, "Lat": -35.281979 }, "geometry": { "type": "Point", "coordinates": [ 174.090573, -35.281979 ] } },
    { "type": "Feature", "properties": { "ID": "169", "TAFL": "HAMILTON CITY", "Pub Name": "5 CROSSROADS SPORTS BAR AND CAFE", "Foundation": "Grassroots Trust Limited", "Address": "5 CROSS ROADS SHOPPING CENTRE 236 PEACHGROVE ROAD, CLAUDELANDS, HAMILTON", "col5": "", "Long": 175.294216, "Lat": -37.773031 }, "geometry": { "type": "Point", "coordinates": [ 175.294216, -37.773031 ] } },
    { "type": "Feature", "properties": { "ID": "170", "TAFL": "HAMILTON CITY", "Pub Name": "EASTSIDE TAVERN", "Foundation": "Grassroots Trust Limited", "Address": "CORNER COOK AND GREY STREETS, HAMILTON EAST, HAMILTON", "col5": "", "Long": 175.293007, "Lat": -37.792362 }, "geometry": { "type": "Point", "coordinates": [ 175.293007, -37.792362 ] } },
    { "type": "Feature", "properties": { "ID": "171", "TAFL": "HAMILTON CITY", "Pub Name": "Hillcrest Haven", "Foundation": "Grassroots Trust Limited", "Address": "276 CAMBRIDGE ROAD, HILLCREST, HAMILTON", "col5": "", "Long": 175.322609, "Lat": -37.801375 }, "geometry": { "type": "Point", "coordinates": [ 175.322609, -37.801375 ] } },
    { "type": "Feature", "properties": { "ID": "172", "TAFL": "HAMILTON CITY", "Pub Name": "HILLCREST TAVERN", "Foundation": "Grassroots Trust Limited", "Address": "247 Clyde Street,CLAUDELANDS, HAMILTON", "col5": "", "Long": 175.307734, "Lat": -37.7898 }, "geometry": { "type": "Point", "coordinates": [ 175.307734, -37.7898 ] } },
    { "type": "Feature", "properties": { "ID": "173", "TAFL": "HAMILTON CITY", "Pub Name": "Lucky Finns", "Foundation": "Grassroots Trust Limited", "Address": "26-28 HOOD STREET, HAMILTON CENTRAL, HAMILTON", "col5": "", "Long": 175.284366, "Lat": -37.790551 }, "geometry": { "type": "Point", "coordinates": [ 175.284366, -37.790551 ] } },
    { "type": "Feature", "properties": { "ID": "174", "TAFL": "HAMILTON CITY", "Pub Name": "SMITH & MCKENZIE CHOPHOUSE", "Foundation": "Grassroots Trust Limited", "Address": "UNIT 1 13 LYNDEN COURT, CHARTWELL, HAMILTON", "col5": "", "Long": 175.27749, "Lat": -37.750442 }, "geometry": { "type": "Point", "coordinates": [ 175.27749, -37.750442 ] } },
    { "type": "Feature", "properties": { "ID": "175", "TAFL": "HAMILTON CITY", "Pub Name": "Square Leg", "Foundation": "Grassroots Trust Limited", "Address": "38A Hood Street,HAMILTON CENTRAL, HAMILTON", "col5": "", "Long": 175.28501, "Lat": -37.790587 }, "geometry": { "type": "Point", "coordinates": [ 175.28501, -37.790587 ] } },
    { "type": "Feature", "properties": { "ID": "176", "TAFL": "HAMILTON CITY", "Pub Name": "THE COOK", "Foundation": "Grassroots Trust Limited", "Address": "7 COOK STREET, HAMILTON CENTRAL, HAMILTON", "col5": "", "Long": 175.294035, "Lat": -37.793323 }, "geometry": { "type": "Point", "coordinates": [ 175.294035, -37.793323 ] } },
    { "type": "Feature", "properties": { "ID": "177", "TAFL": "HAMILTON CITY", "Pub Name": "The Junction", "Foundation": "Grassroots Trust Limited", "Address": "165 COMMERCE STREET, FRANKTON, HAMILTON", "col5": "", "Long": 175.265072, "Lat": -37.78795 }, "geometry": { "type": "Point", "coordinates": [ 175.265072, -37.78795 ] } },
    { "type": "Feature", "properties": { "ID": "178", "TAFL": "HAMILTON CITY", "Pub Name": "The Local", "Foundation": "Grassroots Trust Limited", "Address": "36 BRYANT ROAD, TE RAPA, HAMILTON", "col5": "", "Long": 175.247484, "Lat": -37.757068 }, "geometry": { "type": "Point", "coordinates": [ 175.247484, -37.757068 ] } },
    { "type": "Feature", "properties": { "ID": "179", "TAFL": "HAMILTON CITY", "Pub Name": "THE QUADRANT", "Foundation": "Grassroots Trust Limited", "Address": "391 Victoria Street,HAMILTON CENTRAL, HAMILTON", "col5": "", "Long": 175.282167, "Lat": -37.786615 }, "geometry": { "type": "Point", "coordinates": [ 175.282167, -37.786615 ] } },
    { "type": "Feature", "properties": { "ID": "180", "TAFL": "HAMILTON CITY", "Pub Name": "THE RIV", "Foundation": "Grassroots Trust Limited", "Address": "CLYDE STREET SHOPPING CENTRE, HAMILTON CENTRAL, HAMILTON", "col5": "", "Long": 175.301072, "Lat": -37.789902 }, "geometry": { "type": "Point", "coordinates": [ 175.301072, -37.789902 ] } },
    { "type": "Feature", "properties": { "ID": "181", "TAFL": "HAMILTON CITY", "Pub Name": "YARDHOUSE", "Foundation": "Grassroots Trust Limited", "Address": "GRANDVIEW MALL, CNR GRANDVIEW ROAD & HYDE AVE, HAMILTON", "col5": "", "Long": 175.305502, "Lat": -37.830165 }, "geometry": { "type": "Point", "coordinates": [ 175.305502, -37.830165 ] } },
    { "type": "Feature", "properties": { "ID": "182", "TAFL": "HAURAKI DISTRICT", "Pub Name": "NGATEA HOTEL", "Foundation": "Grassroots Trust Limited", "Address": "32 ORCHARD WEST ROAD, NGATEA, WAIKATO", "col5": "", "Long": 175.495671, "Lat": -37.275919 }, "geometry": { "type": "Point", "coordinates": [ 175.495671, -37.275919 ] } },
    { "type": "Feature", "properties": { "ID": "183", "TAFL": "MATAMATA-PIAKO DISTRICT", "Pub Name": "PALACE HOTEL", "Foundation": "Grassroots Trust Limited", "Address": "WHITTAKER STREET, TE AROHA, WAIKATO", "col5": "", "Long": 175.713236, "Lat": -37.544125 }, "geometry": { "type": "Point", "coordinates": [ 175.713236, -37.544125 ] } },
    { "type": "Feature", "properties": { "ID": "184", "TAFL": "MATAMATA-PIAKO DISTRICT", "Pub Name": "TOP PUB", "Foundation": "Grassroots Trust Limited", "Address": "2618 State Highway 26,MORRINSVILLE, WAIKATO", "col5": "", "Long": 175.516645, "Lat": -37.662252 }, "geometry": { "type": "Point", "coordinates": [ 175.516645, -37.662252 ] } },
    { "type": "Feature", "properties": { "ID": "185", "TAFL": "NAPIER CITY", "Pub Name": "Bev Ridges On York", "Foundation": "Grassroots Trust Limited", "Address": "1 DURHAM AVENUE, TAMATEA, NAPIER", "col5": "", "Long": 176.867906, "Lat": -39.510369 }, "geometry": { "type": "Point", "coordinates": [ 176.867906, -39.510369 ] } },
    { "type": "Feature", "properties": { "ID": "186", "TAFL": "ROTORUA DISTRICT", "Pub Name": "Ngongotaha Tavern", "Foundation": "Grassroots Trust Limited", "Address": "11B HALL ROAD, NGONGOTAHA, ROTORUA DISTRICT", "col5": "", "Long": 176.21062, "Lat": -38.081076 }, "geometry": { "type": "Point", "coordinates": [ 176.21062, -38.081076 ] } },
    { "type": "Feature", "properties": { "ID": "187", "TAFL": "ROTORUA DISTRICT", "Pub Name": "THE SIDEPOCKET BAR", "Foundation": "Grassroots Trust Limited", "Address": "1129 HINEMOA STREET, ROTORUA CENTRAL, ROTORUA", "col5": "", "Long": 176.252758, "Lat": -38.137679 }, "geometry": { "type": "Point", "coordinates": [ 176.252758, -38.137679 ] } },
    { "type": "Feature", "properties": { "ID": "188", "TAFL": "SOUTH WAIKATO DISTRICT", "Pub Name": "CROWN & ANCHOR", "Foundation": "Grassroots Trust Limited", "Address": "4 PRINCESS STREET, PUTARURU, WAIKATO", "col5": "", "Long": 175.779298, "Lat": -38.051514 }, "geometry": { "type": "Point", "coordinates": [ 175.779298, -38.051514 ] } },
    { "type": "Feature", "properties": { "ID": "189", "TAFL": "SOUTH WAIKATO DISTRICT", "Pub Name": "H2O TOKOROA", "Foundation": "Grassroots Trust Limited", "Address": "233 LEITH PLACE, TOKOROA, WAIKATO", "col5": "", "Long": 175.872967, "Lat": -38.218752 }, "geometry": { "type": "Point", "coordinates": [ 175.872967, -38.218752 ] } },
    { "type": "Feature", "properties": { "ID": "190", "TAFL": "TAURANGA DISTRICT", "Pub Name": "Greerton Sports Bar", "Foundation": "Grassroots Trust Limited", "Address": "1315 CAMERON ROAD, TAURANGA CENTRAL, TAURANGA", "col5": "", "Long": 176.132813, "Lat": -37.726053 }, "geometry": { "type": "Point", "coordinates": [ 176.132813, -37.726053 ] } },
    { "type": "Feature", "properties": { "ID": "191", "TAFL": "TAURANGA DISTRICT", "Pub Name": "Maungatapu Sports Bar", "Foundation": "Grassroots Trust Limited", "Address": "285 MAUNGATAPU ROAD, TAURANGA CENTRAL, TAURANGA", "col5": "", "Long": 176.178821, "Lat": -37.716577 }, "geometry": { "type": "Point", "coordinates": [ 176.178821, -37.716577 ] } },
    { "type": "Feature", "properties": { "ID": "192", "TAFL": "TAURANGA DISTRICT", "Pub Name": "MOUNT SOCIAL CLUB", "Foundation": "Grassroots Trust Limited", "Address": "305 MAUNGANUI ROAD, MOUNT MAUNGANUI", "col5": "", "Long": 176.1863, "Lat": -37.642217 }, "geometry": { "type": "Point", "coordinates": [ 176.1863, -37.642217 ] } },
    { "type": "Feature", "properties": { "ID": "193", "TAFL": "TAURANGA DISTRICT", "Pub Name": "Papa Mo's", "Foundation": "Grassroots Trust Limited", "Address": "T13, Exclesa Centre,4 Golden Sands Drive,PAPAMOA BEACH, BAY OF PLENTY", "col5": "", "Long": 176.342041, "Lat": -37.717442 }, "geometry": { "type": "Point", "coordinates": [ 176.342041, -37.717442 ] } },
    { "type": "Feature", "properties": { "ID": "194", "TAFL": "TAURANGA DISTRICT", "Pub Name": "TENPIN TAURANGA", "Foundation": "Grassroots Trust Limited", "Address": "135 THIRTEENTH AVENUE, TAURANGA CENTRAL, TAURANGA", "col5": "", "Long": 176.158424, "Lat": -37.701821 }, "geometry": { "type": "Point", "coordinates": [ 176.158424, -37.701821 ] } },
    { "type": "Feature", "properties": { "ID": "195", "TAFL": "TAURANGA DISTRICT", "Pub Name": "The Flying Mullet Ale House", "Foundation": "Grassroots Trust Limited", "Address": "4/38 GRAVATT ROAD,PAPAMOA, BAY OF PLENTY", "col5": "", "Long": 176.271195, "Lat": -37.699176 }, "geometry": { "type": "Point", "coordinates": [ 176.271195, -37.699176 ] } },
    { "type": "Feature", "properties": { "ID": "196", "TAFL": "TAURANGA DISTRICT", "Pub Name": "THE MATUA", "Foundation": "Grassroots Trust Limited", "Address": "SHOP 6 18 TILBY DRIVE, TAURANGA CENTRAL, TAURANGA", "col5": "", "Long": 176.126661, "Lat": -37.665331 }, "geometry": { "type": "Point", "coordinates": [ 176.126661, -37.665331 ] } },
    { "type": "Feature", "properties": { "ID": "197", "TAFL": "TAURANGA DISTRICT", "Pub Name": "THE RISING TIDE", "Foundation": "Grassroots Trust Limited", "Address": "107 NEWTON STREET, MT MAUNGANUI, BAY OF PLENTY", "col5": "", "Long": 176.204679, "Lat": -37.662098 }, "geometry": { "type": "Point", "coordinates": [ 176.204679, -37.662098 ] } },
    { "type": "Feature", "properties": { "ID": "198", "TAFL": "THAMES-COROMANDEL DISTRICT", "Pub Name": "KOPU STATION HOTEL", "Foundation": "Grassroots Trust Limited", "Address": "1 Kopu Road,Kopu,THAMES, WAIKATO", "col5": "", "Long": 175.569834, "Lat": -37.184161 }, "geometry": { "type": "Point", "coordinates": [ 175.569834, -37.184161 ] } },
    { "type": "Feature", "properties": { "ID": "199", "TAFL": "UPPER HUTT CITY", "Pub Name": "Porterhouse Blues", "Foundation": "Grassroots Trust Limited", "Address": "7A King Street,UPPER HUTT CENTRAL, UPPER HUTT", "col5": "", "Long": 175.0748, "Lat": -41.123279 }, "geometry": { "type": "Point", "coordinates": [ 175.0748, -41.123279 ] } },
    { "type": "Feature", "properties": { "ID": "200", "TAFL": "WAIKATO DISTRICT", "Pub Name": "DELTA HOTEL", "Foundation": "Grassroots Trust Limited", "Address": "2 MARKET STREET, NGARUAWAHIA, WAIKATO", "col5": "", "Long": 175.148546, "Lat": -37.664487 }, "geometry": { "type": "Point", "coordinates": [ 175.148546, -37.664487 ] } },
    { "type": "Feature", "properties": { "ID": "201", "TAFL": "WAIKATO DISTRICT", "Pub Name": "The Bull Rider", "Foundation": "Grassroots Trust Limited", "Address": "29 George Street,TUAKAU, FRANKLIN", "col5": "", "Long": 174.946637, "Lat": -37.258901 }, "geometry": { "type": "Point", "coordinates": [ 174.946637, -37.258901 ] } },
    { "type": "Feature", "properties": { "ID": "202", "TAFL": "WAIPA DISTRICT", "Pub Name": "5 STAGS LEAMINGTON", "Foundation": "Grassroots Trust Limited", "Address": "CORNER BURNS AND CAMPBELL STREETS, CAMBRIDGE, WAIKATO", "col5": "", "Long": 175.477261, "Lat": -37.907645 }, "geometry": { "type": "Point", "coordinates": [ 175.477261, -37.907645 ] } },
    { "type": "Feature", "properties": { "ID": "203", "TAFL": "WAIPA DISTRICT", "Pub Name": "JOY'S PLACE", "Foundation": "Grassroots Trust Limited", "Address": "44 ALEXANDRA STREET, TE AWAMUTU, WAIKATO", "col5": "", "Long": 175.325186, "Lat": -38.009904 }, "geometry": { "type": "Point", "coordinates": [ 175.325186, -38.009904 ] } },
    { "type": "Feature", "properties": { "ID": "204", "TAFL": "WAIPA DISTRICT", "Pub Name": "Oval Sports Bar", "Foundation": "Grassroots Trust Limited", "Address": "13/670 Cambridge Road,TE AWAMUTU, WAIKATO", "col5": "", "Long": 175.430706, "Lat": -37.886618 }, "geometry": { "type": "Point", "coordinates": [ 175.430706, -37.886618 ] } },
    { "type": "Feature", "properties": { "ID": "205", "TAFL": "WAIPA DISTRICT", "Pub Name": "PRINCE ALBERT OLDE ENGLISH PUB", "Foundation": "Grassroots Trust Limited", "Address": "75 VICTORIA STREET, CAMBRIDGE, WAIKATO", "col5": "", "Long": 175.468485, "Lat": -37.89376 }, "geometry": { "type": "Point", "coordinates": [ 175.468485, -37.89376 ] } },
    { "type": "Feature", "properties": { "ID": "206", "TAFL": "WAIPA DISTRICT", "Pub Name": "STAR TAVERN", "Foundation": "Grassroots Trust Limited", "Address": "58 LYON STREET, KIHIKIHI, WAIKATO", "col5": "", "Long": 175.345025, "Lat": -38.038916 }, "geometry": { "type": "Point", "coordinates": [ 175.345025, -38.038916 ] } },
    { "type": "Feature", "properties": { "ID": "207", "TAFL": "WAIPA DISTRICT", "Pub Name": "THE CLUBHOUSE CAFE & SPORTS BAR", "Foundation": "Grassroots Trust Limited", "Address": "CAMBRIDGE RACEWAY TAYLOR STREET, CAMBRIDGE, WAIKATO", "col5": "", "Long": 175.468467, "Lat": -37.880537 }, "geometry": { "type": "Point", "coordinates": [ 175.468467, -37.880537 ] } },
    { "type": "Feature", "properties": { "ID": "208", "TAFL": "WAIPA DISTRICT", "Pub Name": "THE FIRKIN SPORTS BAR", "Foundation": "Grassroots Trust Limited", "Address": "235 SLOANE STREET, TE AWAMUTU", "col5": "", "Long": 175.326262, "Lat": -38.012481 }, "geometry": { "type": "Point", "coordinates": [ 175.326262, -38.012481 ] } },
    { "type": "Feature", "properties": { "ID": "209", "TAFL": "WAITOMO DISTRICT", "Pub Name": "Riverside Lodge", "Foundation": "Grassroots Trust Limited", "Address": "1 RIVERSIDE LANE, TE KUITI, WAIKATO", "col5": "", "Long": 175.167356, "Lat": -38.333644 }, "geometry": { "type": "Point", "coordinates": [ 175.167356, -38.333644 ] } },
    { "type": "Feature", "properties": { "ID": "210", "TAFL": "WAITOMO DISTRICT", "Pub Name": "THE MUSTER BAR", "Foundation": "Grassroots Trust Limited", "Address": "34-36 TAUPIRI STREET, TE KUITI, WAIKATO", "col5": "", "Long": 175.165016, "Lat": -38.332948 }, "geometry": { "type": "Point", "coordinates": [ 175.165016, -38.332948 ] } },
    { "type": "Feature", "properties": { "ID": "211", "TAFL": "WESTERN BAY OF PLENTY DISTRICT", "Pub Name": "TALISMAN HOTEL", "Foundation": "Grassroots Trust Limited", "Address": "7-9 MAIN ROAD, KATIKATI, BAY OF PLENTY", "col5": "", "Long": 175.917034, "Lat": -37.556502 }, "geometry": { "type": "Point", "coordinates": [ 175.917034, -37.556502 ] } },
    { "type": "Feature", "properties": { "ID": "212", "TAFL": "WHAKATANE DISTRICT", "Pub Name": "WHAKATANE HOTEL", "Foundation": "Grassroots Trust Limited", "Address": "79 THE STRAND, WHAKATANE CENTRAL, WHAKATANE", "col5": "", "Long": 176.998114, "Lat": -37.95061 }, "geometry": { "type": "Point", "coordinates": [ 176.998114, -37.95061 ] } },
    { "type": "Feature", "properties": { "ID": "213", "TAFL": "WHANGAREI DISTRICT", "Pub Name": "Coalies Sports Bar And Grill", "Foundation": "Grassroots Trust Limited", "Address": "2 STATION ROAD, KAMO, NORTHLAND", "col5": "", "Long": 174.300727, "Lat": -35.681858 }, "geometry": { "type": "Point", "coordinates": [ 174.300727, -35.681858 ] } },
    { "type": "Feature", "properties": { "ID": "214", "TAFL": "INVERCARGILL CITY", "Pub Name": "ASCOT PARK MOTOR HOTEL", "Foundation": "ILT FOUNDATION", "Address": "41 RACECOURSE ROAD, HAWTHORNDALE, INVERCARGILL", "col5": "", "Long": 168.394718, "Lat": -46.40391 }, "geometry": { "type": "Point", "coordinates": [ 168.394718, -46.40391 ] } },
    { "type": "Feature", "properties": { "ID": "215", "TAFL": "INVERCARGILL CITY", "Pub Name": "AVENAL HOMESTEAD", "Foundation": "ILT FOUNDATION", "Address": "303 DEE STREET, INVERCARGILL CENTRAL, INVERCARGILL", "col5": "", "Long": 168.347339, "Lat": -46.399993 }, "geometry": { "type": "Point", "coordinates": [ 168.347339, -46.399993 ] } },
    { "type": "Feature", "properties": { "ID": "216", "TAFL": "INVERCARGILL CITY", "Pub Name": "GLENGARRY TAVERN AKA EASTERN SUBURBS TAVERN", "Foundation": "ILT FOUNDATION", "Address": "61 GLENGARRY CRESCENT, GLENGARRY, INVERCARGILL", "col5": "", "Long": 168.386158, "Lat": -46.401728 }, "geometry": { "type": "Point", "coordinates": [ 168.386158, -46.401728 ] } },
    { "type": "Feature", "properties": { "ID": "217", "TAFL": "INVERCARGILL CITY", "Pub Name": "KELVIN HOTEL", "Foundation": "ILT FOUNDATION", "Address": "18 KELVIN STREET, INVERCARGILL CENTRAL, INVERCARGILL", "col5": "", "Long": 168.35061, "Lat": -46.411979 }, "geometry": { "type": "Point", "coordinates": [ 168.35061, -46.411979 ] } },
    { "type": "Feature", "properties": { "ID": "218", "TAFL": "INVERCARGILL CITY", "Pub Name": "NEWFIELD TAVERN", "Foundation": "ILT FOUNDATION", "Address": "CENTRE STREET, NEWFIELD, INVERCARGILL", "col5": "", "Long": 168.384575, "Lat": -46.422547 }, "geometry": { "type": "Point", "coordinates": [ 168.384575, -46.422547 ] } },
    { "type": "Feature", "properties": { "ID": "219", "TAFL": "INVERCARGILL CITY", "Pub Name": "NORTHERN TAVERN", "Foundation": "ILT FOUNDATION", "Address": "CORNER SYDNEY AND ST ANDREW STREETS, GLENGARRY, INVERCARGILL", "col5": "", "Long": 168.375292, "Lat": -46.400545 }, "geometry": { "type": "Point", "coordinates": [ 168.375292, -46.400545 ] } },
    { "type": "Feature", "properties": { "ID": "220", "TAFL": "INVERCARGILL CITY", "Pub Name": "SOUTHLAND TAVERN", "Foundation": "ILT FOUNDATION", "Address": "CORNER ELLES ROAD AND MCQUARRIE STREET, STRATHERN, INVERCARGILL", "col5": "", "Long": 168.361463, "Lat": -46.429568 }, "geometry": { "type": "Point", "coordinates": [ 168.361463, -46.429568 ] } },
    { "type": "Feature", "properties": { "ID": "221", "TAFL": "INVERCARGILL CITY", "Pub Name": "WAIKIWI TAVERN", "Foundation": "ILT FOUNDATION", "Address": "181 North Road,WAIKIWI, INVERCARGILL", "col5": "", "Long": 168.347648, "Lat": -46.381626 }, "geometry": { "type": "Point", "coordinates": [ 168.347648, -46.381626 ] } },
    { "type": "Feature", "properties": { "ID": "222", "TAFL": "INVERCARGILL CITY", "Pub Name": "WAXY O'SHEA'S", "Foundation": "ILT FOUNDATION", "Address": "90 DEE STREET, INVERCARGIL", "col5": "", "Long": 168.347044, "Lat": -46.410175 }, "geometry": { "type": "Point", "coordinates": [ 168.347044, -46.410175 ] } },
    { "type": "Feature", "properties": { "ID": "223", "TAFL": "KAIPARA DISTRICT", "Pub Name": "THREE FURLONGS HOTEL", "Foundation": "KAIWAKA SPORTS ASSOCIATION INCORPORATED", "Address": "MAIN ROAD, KAIWAKA, NORTHLAND", "col5": "", "Long": 174.393536, "Lat": -36.113734 }, "geometry": { "type": "Point", "coordinates": [ 174.393536, -36.113734 ] } },
    { "type": "Feature", "properties": { "ID": "224", "TAFL": "CHRISTCHURCH CITY INCLUDING BANKS PENINSULA WARD", "Pub Name": "AVONHEAD TAVERN", "Foundation": "MAINLAND FOUNDATION LIMITED", "Address": "120 WITHELLS ROAD, AVONHEAD, CHRISTCHURCH", "col5": "", "Long": 172.553, "Lat": -43.517052 }, "geometry": { "type": "Point", "coordinates": [ 172.553, -43.517052 ] } },
    { "type": "Feature", "properties": { "ID": "225", "TAFL": "CHRISTCHURCH CITY INCLUDING BANKS PENINSULA WARD", "Pub Name": "Big Daddy's Dhaba", "Foundation": "MAINLAND FOUNDATION LIMITED", "Address": "282 BLENHEIM ROAD, RICCARTON, CHRISTCHURCH", "col5": "", "Long": 172.585485, "Lat": -43.538221 }, "geometry": { "type": "Point", "coordinates": [ 172.585485, -43.538221 ] } },
    { "type": "Feature", "properties": { "ID": "226", "TAFL": "CHRISTCHURCH CITY INCLUDING BANKS PENINSULA WARD", "Pub Name": "EQUESTRIAN HOTEL", "Foundation": "MAINLAND FOUNDATION LIMITED", "Address": "6 TOWER STREET, HORNBY, CHRISTCHURCH", "col5": "", "Long": 172.526499, "Lat": -43.544225 }, "geometry": { "type": "Point", "coordinates": [ 172.526499, -43.544225 ] } },
    { "type": "Feature", "properties": { "ID": "227", "TAFL": "CHRISTCHURCH CITY INCLUDING BANKS PENINSULA WARD", "Pub Name": "NEW CITY HOTEL", "Foundation": "MAINLAND FOUNDATION LIMITED", "Address": "527 COLOMBO STREET, CHRISTCHURCH CENTRAL, CHRISTCHURCH", "col5": "", "Long": 172.63637, "Lat": -43.539208 }, "geometry": { "type": "Point", "coordinates": [ 172.63637, -43.539208 ] } },
    { "type": "Feature", "properties": { "ID": "228", "TAFL": "CHRISTCHURCH CITY INCLUDING BANKS PENINSULA WARD", "Pub Name": "Queenspark Ale House", "Foundation": "MAINLAND FOUNDATION LIMITED", "Address": "60 QUEENSPARK DRIVE, PARKLANDS, CHRISTCHURCH", "col5": "", "Long": 172.706001, "Lat": -43.481639 }, "geometry": { "type": "Point", "coordinates": [ 172.706001, -43.481639 ] } },
    { "type": "Feature", "properties": { "ID": "229", "TAFL": "CHRISTCHURCH CITY INCLUDING BANKS PENINSULA WARD", "Pub Name": "THE BROUGHAM TAVERN", "Foundation": "MAINLAND FOUNDATION LIMITED", "Address": "151 WALTHAM ROAD, SYDENHAM, CHRISTCHURCH", "col5": "", "Long": 172.646507, "Lat": -43.546889 }, "geometry": { "type": "Point", "coordinates": [ 172.646507, -43.546889 ] } },
    { "type": "Feature", "properties": { "ID": "230", "TAFL": "CHRISTCHURCH CITY INCLUDING BANKS PENINSULA WARD", "Pub Name": "THE TURF", "Foundation": "MAINLAND FOUNDATION LIMITED", "Address": "6 INWOODS ROAD, PARKLANDS, CHRISTCHURCH", "col5": "", "Long": 172.698484, "Lat": -43.481378 }, "geometry": { "type": "Point", "coordinates": [ 172.698484, -43.481378 ] } },
    { "type": "Feature", "properties": { "ID": "231", "TAFL": "HURUNUI DISTRICT", "Pub Name": "ALPINE VILLAGE INN", "Foundation": "MAINLAND FOUNDATION LIMITED", "Address": "10 JACKS PASS ROAD, HANMER SPRINGS, CANTERBURY", "col5": "", "Long": 172.828364, "Lat": -42.521107 }, "geometry": { "type": "Point", "coordinates": [ 172.828364, -42.521107 ] } },
    { "type": "Feature", "properties": { "ID": "232", "TAFL": "HURUNUI DISTRICT", "Pub Name": "MONTEITHS BREWERY BAR", "Foundation": "MAINLAND FOUNDATION LIMITED", "Address": "47 AMURI AVENUE, HANMER SPRINGS, CANTERBURY", "col5": "", "Long": 172.829948, "Lat": -42.522744 }, "geometry": { "type": "Point", "coordinates": [ 172.829948, -42.522744 ] } },
    { "type": "Feature", "properties": { "ID": "233", "TAFL": "NELSON CITY", "Pub Name": "THE SANDS BREWERY BAR & KITCHEN", "Foundation": "MAINLAND FOUNDATION LIMITED", "Address": "SHOP 9 623 ROCKS ROAD, TAHUNANUI, NELSON", "col5": "", "Long": 173.250672, "Lat": -41.280218 }, "geometry": { "type": "Point", "coordinates": [ 173.250672, -41.280218 ] } },
    { "type": "Feature", "properties": { "ID": "234", "TAFL": "NELSON CITY", "Pub Name": "TURF HOTEL", "Foundation": "MAINLAND FOUNDATION LIMITED", "Address": "228 SONGER STREET, STOKE, NELSON", "col5": "", "Long": 173.233237, "Lat": -41.313523 }, "geometry": { "type": "Point", "coordinates": [ 173.233237, -41.313523 ] } },
    { "type": "Feature", "properties": { "ID": "235", "TAFL": "PALMERSTON NORTH CITY", "Pub Name": "THE COBB", "Foundation": "MAINLAND FOUNDATION LIMITED", "Address": "522-532 MAIN STREET EAST, PALMERSTON NORTH CENTRAL, PALMERSTON NORTH", "col5": "", "Long": 175.618548, "Lat": -40.352888 }, "geometry": { "type": "Point", "coordinates": [ 175.618548, -40.352888 ] } },
    { "type": "Feature", "properties": { "ID": "236", "TAFL": "PALMERSTON NORTH CITY", "Pub Name": "The Daily", "Foundation": "MAINLAND FOUNDATION LIMITED", "Address": "511 MAIN STREET,PALMERSTON NORTH CENTRAL, PALMERSTON NORTH", "col5": "", "Long": 175.569378, "Lat": -40.433449 }, "geometry": { "type": "Point", "coordinates": [ 175.569378, -40.433449 ] } },
    { "type": "Feature", "properties": { "ID": "237", "TAFL": "PALMERSTON NORTH CITY", "Pub Name": "Trader McKendrys", "Foundation": "MAINLAND FOUNDATION LIMITED", "Address": "38-40 FITZHERBERT AVENUE, PALMERSTON NORTH CENTRAL, PALMERSTON NORTH", "col5": "", "Long": 175.6331, "Lat": -40.38082 }, "geometry": { "type": "Point", "coordinates": [ 175.6331, -40.38082 ] } },
    { "type": "Feature", "properties": { "ID": "238", "TAFL": "SELWYN DISTRICT", "Pub Name": "Crate & Barrell", "Foundation": "MAINLAND FOUNDATION LIMITED", "Address": "3 Market Street,Leeston,SELWYN-RAKAIA, CANTERBURY", "col5": "", "Long": 172.295086, "Lat": -43.763124 }, "geometry": { "type": "Point", "coordinates": [ 172.295086, -43.763124 ] } },
    { "type": "Feature", "properties": { "ID": "239", "TAFL": "TARARUA DISTRICT", "Pub Name": "MERRYLEES HOTEL", "Foundation": "MAINLAND FOUNDATION LIMITED", "Address": "CORNER HALL AND STATION STREETS, DANNEVIRKE, MANAWATU", "col5": "", "Long": 176.096477, "Lat": -40.209306 }, "geometry": { "type": "Point", "coordinates": [ 176.096477, -40.209306 ] } },
    { "type": "Feature", "properties": { "ID": "240", "TAFL": "Auckland Council - Papakura", "Pub Name": "COYOTE BAR", "Foundation": "MANUKAU COUNTIES COMMUNITY FACILITIES CHARITABLE TRUST", "Address": "163-165 GREAT SOUTH ROAD, PAPAKURA, SOUTH AUCKLAND", "col5": "", "Long": 174.942115, "Lat": -37.062738 }, "geometry": { "type": "Point", "coordinates": [ 174.942115, -37.062738 ] } },
    { "type": "Feature", "properties": { "ID": "241", "TAFL": "Auckland Council - Papakura", "Pub Name": "FORGE2", "Foundation": "MANUKAU COUNTIES COMMUNITY FACILITIES CHARITABLE TRUST", "Address": "26 EAST STREET, PAPAKURA, SOUTH AUCKLAND", "col5": "", "Long": 174.941662, "Lat": -37.063664 }, "geometry": { "type": "Point", "coordinates": [ 174.941662, -37.063664 ] } },
    { "type": "Feature", "properties": { "ID": "242", "TAFL": "Auckland Council - Papakura", "Pub Name": "F BAR PAPAKURA", "Foundation": "MANUKAU COUNTIES COMMUNITY FACILITIES CHARITABLE TRUST", "Address": "37 O'SHANNESSEY STREET, PAPAKURA, SOUTH AUCKLAND", "col5": "", "Long": 174.942452, "Lat": -37.060406 }, "geometry": { "type": "Point", "coordinates": [ 174.942452, -37.060406 ] } },
    { "type": "Feature", "properties": { "ID": "243", "TAFL": "Auckland Council - Papakura", "Pub Name": "Two Turkeys Restaurant & Bar", "Foundation": "MANUKAU COUNTIES COMMUNITY FACILITIES CHARITABLE TRUST", "Address": "182 Great South Road, Papakura, Auckland 2110", "col5": "", "Long": 174.921174, "Lat": -37.044518 }, "geometry": { "type": "Point", "coordinates": [ 174.921174, -37.044518 ] } },
    { "type": "Feature", "properties": { "ID": "244", "TAFL": "AUCKLAND COUNCIL - ALBERT - EDEN", "Pub Name": "Mr Wang's Bar", "Foundation": "Milestone Foundation Limited", "Address": "244-256 DOMINION ROAD, MOUNT EDEN, AUCKLAND", "col5": "", "Long": 174.744639, "Lat": -36.895724 }, "geometry": { "type": "Point", "coordinates": [ 174.744639, -36.895724 ] } },
    { "type": "Feature", "properties": { "ID": "245", "TAFL": "AUCKLAND COUNCIL - HIBISCUS AND BAYS", "Pub Name": "Kung Fu Chef Restaurant", "Foundation": "Milestone Foundation Limited", "Address": "UNITS G & H 70A GRAND DRIVE, OREWA, RODNEY DISTRICT", "col5": "", "Long": 174.678712, "Lat": -36.588942 }, "geometry": { "type": "Point", "coordinates": [ 174.678712, -36.588942 ] } },
    { "type": "Feature", "properties": { "ID": "246", "TAFL": "AUCKLAND COUNCIL - HIBISCUS AND BAYS", "Pub Name": "Office Bar & Grill", "Foundation": "Milestone Foundation Limited", "Address": "82 THE STRAND, WHAKATANE", "col5": "", "Long": 176.99791, "Lat": -37.950272 }, "geometry": { "type": "Point", "coordinates": [ 176.99791, -37.950272 ] } },
    { "type": "Feature", "properties": { "ID": "247", "TAFL": "Auckland Council - Kaipatiki", "Pub Name": "MAD DOGS & ENGLISHMEN", "Foundation": "Milestone Foundation Limited", "Address": "UNIT 8 20 LINK DRIVE, TAKAPUNA CENTRAL, NORTH SHORE CITY", "col5": "", "Long": 172.375594, "Lat": -43.584025 }, "geometry": { "type": "Point", "coordinates": [ 172.375594, -43.584025 ] } },
    { "type": "Feature", "properties": { "ID": "248", "TAFL": "AUCKLAND COUNCIL - MAUNGAKIEKIE - TAMAKI", "Pub Name": "MT RICHMOND HOTEL", "Foundation": "Milestone Foundation Limited", "Address": "676 MT WELLINGTON HIGHWAY, OTAHUHU, AUCKLAND", "col5": "", "Long": 174.842199, "Lat": -36.934847 }, "geometry": { "type": "Point", "coordinates": [ 174.842199, -36.934847 ] } },
    { "type": "Feature", "properties": { "ID": "249", "TAFL": "AUCKLAND COUNCIL - UPPER HARBOUR", "Pub Name": "THE DARK HORSE", "Foundation": "Milestone Foundation Limited", "Address": "70 PARKWAY DRIVE, MAIRANGI BAY, NORTH SHORE CITY", "col5": "", "Long": 174.729196, "Lat": -36.750421 }, "geometry": { "type": "Point", "coordinates": [ 174.729196, -36.750421 ] } },
    { "type": "Feature", "properties": { "ID": "250", "TAFL": "WAIPA DISTRICT", "Pub Name": "Peach and Porker", "Foundation": "Milestone Foundation Limited", "Address": "CORNER ALEXANDRA AND ROCHE STREETS, TE AWAMUTU, WAIKATO", "col5": "", "Long": 175.323005, "Lat": -38.011957 }, "geometry": { "type": "Point", "coordinates": [ 175.323005, -38.011957 ] } },
    { "type": "Feature", "properties": { "ID": "251", "TAFL": "AUCKLAND COUNCIL - MAUNGAKIEKIE - TAMAKI", "Pub Name": "LANDMARK BAR & EATERY", "Foundation": "MT WELLINGTON FOUNDATION LIMITED/MT WELLINGTON LICENSING TRUST", "Address": "QUEENS ROAD, PANMURE, AUCKLAND", "col5": "", "Long": 174.856551, "Lat": -36.900817 }, "geometry": { "type": "Point", "coordinates": [ 174.856551, -36.900817 ] } },
    { "type": "Feature", "properties": { "ID": "252", "TAFL": "AUCKLAND COUNCIL - MAUNGAKIEKIE - TAMAKI", "Pub Name": "THE CORNER BAR", "Foundation": "MT WELLINGTON FOUNDATION LIMITED/MT WELLINGTON LICENSING TRUST", "Address": "163 QUEENS ROAD, PANMURE, AUCKLAND", "col5": "", "Long": 174.856549, "Lat": -36.900815 }, "geometry": { "type": "Point", "coordinates": [ 174.856549, -36.900815 ] } },
    { "type": "Feature", "properties": { "ID": "253", "TAFL": "CHRISTCHURCH CITY INCLUDING BANKS PENINSULA WARD", "Pub Name": "Churchill's Tavern", "Foundation": "New Zealand Community Trust", "Address": "441 COLOMBO STREET, SYDENHAM, CHRISTCHURCH", "col5": "", "Long": 172.636467, "Lat": -43.543833 }, "geometry": { "type": "Point", "coordinates": [ 172.636467, -43.543833 ] } },
    { "type": "Feature", "properties": { "ID": "254", "TAFL": "ROTORUA DISTRICT", "Pub Name": "MO'S BAR", "Foundation": "New Zealand Community Trust", "Address": "1142-1144 TUTANEKAI STREET, ROTORUA CENTRAL, ROTORUA", "col5": "", "Long": 176.251494, "Lat": -38.139796 }, "geometry": { "type": "Point", "coordinates": [ 176.251494, -38.139796 ] } },
    { "type": "Feature", "properties": { "ID": "255", "TAFL": "Ashburton", "Pub Name": "BLUE PUB", "Foundation": "New Zealand Community Trust", "Address": "CORNER BARKERS ROAD AND KILWORTH STREET, METHVEN, CANTERBURY", "col5": "", "Long": 171.685489, "Lat": -43.601537 }, "geometry": { "type": "Point", "coordinates": [ 171.685489, -43.601537 ] } },
    { "type": "Feature", "properties": { "ID": "256", "TAFL": "Ashburton", "Pub Name": "THE BROWN PUB", "Foundation": "New Zealand Community Trust", "Address": "FOREST DRIVE, METHVEN, CANTERBURY", "col5": "", "Long": 171.640106, "Lat": -43.629862 }, "geometry": { "type": "Point", "coordinates": [ 171.640106, -43.629862 ] } },
    { "type": "Feature", "properties": { "ID": "257", "TAFL": "AUCKLAND COUNCIL - ALBERT - EDEN", "Pub Name": "THE CROWN SPORTS BAR", "Foundation": "New Zealand Community Trust", "Address": "1104 GREAT NORTH ROAD, POINT CHEVALIER, AUCKLAND", "col5": "", "Long": 174.713539, "Lat": -36.869256 }, "geometry": { "type": "Point", "coordinates": [ 174.713539, -36.869256 ] } },
    { "type": "Feature", "properties": { "ID": "258", "TAFL": "AUCKLAND COUNCIL - FRANKLIN", "Pub Name": "COUNTIES INN", "Foundation": "New Zealand Community Trust", "Address": "25 PAERATA ROAD,PUKEKOHE, FRANKLIN", "col5": "", "Long": 174.902182, "Lat": -37.188823 }, "geometry": { "type": "Point", "coordinates": [ 174.902182, -37.188823 ] } },
    { "type": "Feature", "properties": { "ID": "259", "TAFL": "AUCKLAND COUNCIL - HENDERSON - MASSEY", "Pub Name": "PINS LINCOLN", "Foundation": "New Zealand Community Trust", "Address": "199 LINCOLN ROAD, HENDERSON, AUCKLAND", "col5": "", "Long": 174.629874, "Lat": -36.860238 }, "geometry": { "type": "Point", "coordinates": [ 174.629874, -36.860238 ] } },
    { "type": "Feature", "properties": { "ID": "260", "TAFL": "AUCKLAND COUNCIL - HIBISCUS AND BAYS", "Pub Name": "COUTTA'S", "Foundation": "New Zealand Community Trust", "Address": "SHOP 15 CORNER RED BEACH ROAD AND BAY STREET, RED BEACH, RODNEY DISTRICT", "col5": "", "Long": 174.698138, "Lat": -36.606849 }, "geometry": { "type": "Point", "coordinates": [ 174.698138, -36.606849 ] } },
    { "type": "Feature", "properties": { "ID": "261", "TAFL": "AUCKLAND COUNCIL - HIBISCUS AND BAYS", "Pub Name": "The Crown Orewa Beach", "Foundation": "New Zealand Community Trust", "Address": "SHOP 1 300-304 HIBISCUS COAST HIGHWAY, OREWA, RODNEY DISTRICT", "col5": "", "Long": 174.696535, "Lat": -36.587691 }, "geometry": { "type": "Point", "coordinates": [ 174.696535, -36.587691 ] } },
    { "type": "Feature", "properties": { "ID": "262", "TAFL": "AUCKLAND COUNCIL - HIBISCUS AND BAYS", "Pub Name": "THE WADE HOTEL", "Foundation": "New Zealand Community Trust", "Address": "2 TAVERN ROAD, SILVERDALE, RODNEY DISTRICT", "col5": "", "Long": 174.677559, "Lat": -36.620793 }, "geometry": { "type": "Point", "coordinates": [ 174.677559, -36.620793 ] } },
    { "type": "Feature", "properties": { "ID": "263", "TAFL": "AUCKLAND COUNCIL - HOWICK", "Pub Name": "BARREL INN", "Foundation": "New Zealand Community Trust", "Address": "UNIT 1 15 COOK STREET, HOWICK, MANUKAU", "col5": "", "Long": 174.933003, "Lat": -36.896007 }, "geometry": { "type": "Point", "coordinates": [ 174.933003, -36.896007 ] } },
    { "type": "Feature", "properties": { "ID": "264", "TAFL": "AUCKLAND COUNCIL - HOWICK", "Pub Name": "The Rib House", "Foundation": "New Zealand Community Trust", "Address": "UNIT 21,123 ORMISTON ROAD,FLAT BUSH, AUCKLAND", "col5": "", "Long": 174.902944, "Lat": -36.964305 }, "geometry": { "type": "Point", "coordinates": [ 174.902944, -36.964305 ] } },
    { "type": "Feature", "properties": { "ID": "265", "TAFL": "AUCKLAND COUNCIL - MANGERE - OTAHUHU", "Pub Name": "Le Tausala Club", "Foundation": "New Zealand Community Trust", "Address": "1 MANGERE TOWN SQUARE BADER DRIVE, MANGERE, MANUKAU", "col5": "", "Long": 174.79984, "Lat": -36.969508 }, "geometry": { "type": "Point", "coordinates": [ 174.79984, -36.969508 ] } },
    { "type": "Feature", "properties": { "ID": "266", "TAFL": "AUCKLAND COUNCIL - ORAKEI", "Pub Name": "1 UP SPORTS BAR", "Foundation": "New Zealand Community Trust", "Address": "1 UPLAND ROAD, REMUERA, AUCKLAND", "col5": "", "Long": 174.811866, "Lat": -36.880398 }, "geometry": { "type": "Point", "coordinates": [ 174.811866, -36.880398 ] } },
    { "type": "Feature", "properties": { "ID": "267", "TAFL": "AUCKLAND COUNCIL - OTARA - PAPATOETOE", "Pub Name": "CLUB ROYALZ", "Foundation": "New Zealand Community Trust", "Address": "57H CAVENDISH DRIVE,MANUKAU CITY, MANUKAU", "col5": "", "Long": 174.874662, "Lat": -36.987742 }, "geometry": { "type": "Point", "coordinates": [ 174.874662, -36.987742 ] } },
    { "type": "Feature", "properties": { "ID": "268", "TAFL": "AUCKLAND COUNCIL - RODNEY", "Pub Name": "The Salty Dog Inn", "Foundation": "New Zealand Community Trust", "Address": "242 MAHURANGI EAST ROAD, SNELLS BEACH, RODNEY DISTRICT", "col5": "", "Long": 174.723437, "Lat": -36.418255 }, "geometry": { "type": "Point", "coordinates": [ 174.723437, -36.418255 ] } },
    { "type": "Feature", "properties": { "ID": "269", "TAFL": "AUCKLAND COUNCIL - WAITEMATA", "Pub Name": "Pitt St Pub", "Foundation": "New Zealand Community Trust", "Address": "243 KARANGAHAPE ROAD,NEWTO", "col5": "", "Long": 174.758775, "Lat": -36.857519 }, "geometry": { "type": "Point", "coordinates": [ 174.758775, -36.857519 ] } },
    { "type": "Feature", "properties": { "ID": "270", "TAFL": "AUCKLAND COUNCIL - WAITEMATA", "Pub Name": "THE RIGHT TRACK SPORTS CAFE", "Foundation": "New Zealand Community Trust", "Address": "QUEEN STREET BACKPACKERS & HOSTEL 4 FORT STREET, AUCKLAND CENTRAL, AUCKLAND", "col5": "", "Long": 174.766994, "Lat": -36.845845 }, "geometry": { "type": "Point", "coordinates": [ 174.766994, -36.845845 ] } },
    { "type": "Feature", "properties": { "ID": "271", "TAFL": "BULLER DISTRICT", "Pub Name": "REEFTON AUTOLODGE", "Foundation": "New Zealand Community Trust", "Address": "72-78 BROADWAY, REEFTON, BULLER", "col5": "", "Long": 171.864319, "Lat": -42.119568 }, "geometry": { "type": "Point", "coordinates": [ 171.864319, -42.119568 ] } },
    { "type": "Feature", "properties": { "ID": "272", "TAFL": "CENTRAL OTAGO DISTRICT", "Pub Name": "GRAND TAVERN", "Foundation": "New Zealand Community Trust", "Address": "94 SCOTLAND STREET, ROXBURGH, OTAGO", "col5": "", "Long": 169.314448, "Lat": -45.539847 }, "geometry": { "type": "Point", "coordinates": [ 169.314448, -45.539847 ] } },
    { "type": "Feature", "properties": { "ID": "273", "TAFL": "CENTRAL OTAGO DISTRICT", "Pub Name": "STADIUM TAVERN", "Foundation": "New Zealand Community Trust", "Address": "143 CENTENNIAL AVENUE, ALEXANDRA, OTAGO", "col5": "", "Long": 169.382038, "Lat": -45.245413 }, "geometry": { "type": "Point", "coordinates": [ 169.382038, -45.245413 ] } },
    { "type": "Feature", "properties": { "ID": "274", "TAFL": "CENTRAL OTAGO DISTRICT", "Pub Name": "THE GATE", "Foundation": "New Zealand Community Trust", "Address": "6 BARRYS AVENUE, CROMWELL, OTAGO", "col5": "", "Long": 169.199816, "Lat": -45.036459 }, "geometry": { "type": "Point", "coordinates": [ 169.199816, -45.036459 ] } },
    { "type": "Feature", "properties": { "ID": "275", "TAFL": "CHATHAM ISLANDS DISTRICT", "Pub Name": "HOTEL CHATHAMS", "Foundation": "New Zealand Community Trust", "Address": "WHARF ROAD, CHATHAM ISLANDS, CANTERBURY", "col5": "", "Long": 172.901576, "Lat": -43.682635 }, "geometry": { "type": "Point", "coordinates": [ 172.901576, -43.682635 ] } },
    { "type": "Feature", "properties": { "ID": "276", "TAFL": "CHRISTCHURCH CITY INCLUDING BANKS PENINSULA WARD", "Pub Name": "BLACK HORSE", "Foundation": "New Zealand Community Trust", "Address": "33 LINCOLN ROAD, MIDDLETON, CHRISTCHURCH", "col5": "", "Long": 172.597453, "Lat": -43.551827 }, "geometry": { "type": "Point", "coordinates": [ 172.597453, -43.551827 ] } },
    { "type": "Feature", "properties": { "ID": "277", "TAFL": "CHRISTCHURCH CITY INCLUDING BANKS PENINSULA WARD", "Pub Name": "Ferry Tavern", "Foundation": "New Zealand Community Trust", "Address": "1060 FERRY ROAD,FERRYMEAD, CHRISTCHURCH", "col5": "", "Long": 172.707103, "Lat": -43.558526 }, "geometry": { "type": "Point", "coordinates": [ 172.707103, -43.558526 ] } },
    { "type": "Feature", "properties": { "ID": "278", "TAFL": "CHRISTCHURCH CITY INCLUDING BANKS PENINSULA WARD", "Pub Name": "GOLDEN MILE TAVERN", "Foundation": "New Zealand Community Trust", "Address": "10 TRENTS ROAD, TEMPLETON, CHRISTCHURCH", "col5": "", "Long": 172.474318, "Lat": -43.55553 }, "geometry": { "type": "Point", "coordinates": [ 172.474318, -43.55553 ] } },
    { "type": "Feature", "properties": { "ID": "279", "TAFL": "CHRISTCHURCH CITY INCLUDING BANKS PENINSULA WARD", "Pub Name": "MILLER BAR & CAFE", "Foundation": "New Zealand Community Trust", "Address": "308 LINCOLN ROAD, ADDINGTON, CHRISTCHURCH", "col5": "", "Long": 172.612028, "Lat": -43.543666 },